FID,OID_,FID_,Lat,Long,Lat1,Long1,Shape_Leng,FID_1,VIN,Address,Date,DateD,DateH,Lat_1,Long_1,t2,t2D,t2H,VIN1,Address1,Date1,Date1D,Date1H,Lat1_1,Long1_1,t21,t21D,t21H
0,0,1,43.641590000000001,-79.447329999999994,43.643990000000002,-79.446439999999996,382.252491749000000,1,BNYB048,"80-82 Roncesvalles Ave, Toronto, ON M6R 2K7",10/15/2017 0:01,15,0,43.641590000000001,-79.447329999999994,10/15/2017 8:42,15,8,BNYB048,"157 Garden Ave, Toronto, ON M6R 1H8",10/15/2017 8:47,15,8,43.643990000000002,-79.446439999999996,10/15/2017 16:00,15,16
1,0,2,43.643990000000002,-79.446439999999996,43.700730000000000,-79.427859999999995,8974.165994189999800,2,BNYB048,"157 Garden Ave, Toronto, ON M6R 1H8",10/15/2017 8:47,15,8,43.643990000000002,-79.446439999999996,10/15/2017 16:00,15,16,BNYB048,"912 Eglinton Ave W, Toronto, ON M6C 2C2",10/15/2017 16:57,15,16,43.700730000000000,-79.427859999999995,10/15/2017 18:30,15,18
2,0,3,43.636910000000000,-79.409719999999993,43.637790000000003,-79.401550000000000,919.497652592000010,3,BNYB050,Green P-800 Fleet St(No Double Parking),10/15/2017 0:01,15,0,43.636910000000000,-79.409719999999993,10/15/2017 10:12,15,10,BNYB050,The Garrison-169 Fort York BLVD (1 car/space only),10/15/2017 11:32,15,11,43.637790000000003,-79.401550000000000,10/15/2017 13:39,15,13
3,0,4,43.637790000000003,-79.401550000000000,43.646329999999999,-79.394549999999995,1527.408864739999900,4,BNYB050,The Garrison-169 Fort York BLVD (1 car/space only),10/15/2017 11:32,15,11,43.637790000000003,-79.401550000000000,10/15/2017 13:39,15,13,BNYB050,"7 Oxley St, Toronto, ON M5V",10/15/2017 12:18,15,12,43.646329999999999,-79.394549999999995,10/15/2017 12:44,15,12
4,0,5,43.646329999999999,-79.394549999999995,43.663730000000001,-79.401030000000006,2772.652330620000200,5,BNYB050,"7 Oxley St, Toronto, ON M5V",10/15/2017 12:18,15,12,43.646329999999999,-79.394549999999995,10/15/2017 12:44,15,12,BNYB050,UofT-42 Harbord St-car2go park signs (enter alley),10/15/2017 14:29,15,14,43.663730000000001,-79.401030000000006,10/15/2017 15:19,15,15
5,0,6,43.663730000000001,-79.401030000000006,43.687840000000001,-79.351799999999997,6618.437502640000300,6,BNYB050,UofT-42 Harbord St-car2go park signs (enter alley),10/15/2017 14:29,15,14,43.663730000000001,-79.401030000000006,10/15/2017 15:19,15,15,BNYB050,"70-80 Gowan Ave, East York, ON M4K 2E4",10/15/2017 16:10,15,16,43.687840000000001,-79.351799999999997,10/15/2017 17:09,15,17
6,0,7,43.687840000000001,-79.351799999999997,43.684890000000003,-79.316410000000005,3965.684430070000000,7,BNYB050,"70-80 Gowan Ave, East York, ON M4K 2E4",10/15/2017 16:10,15,16,43.687840000000001,-79.351799999999997,10/15/2017 17:09,15,17,BNYB050,"1909 Danforth Ave, Toronto, ON M4C 1J4",10/15/2017 18:05,15,18,43.684890000000003,-79.316410000000005,10/15/2017 18:30,15,18
7,0,8,43.663310000000003,-79.366860000000003,43.651930000000000,-79.356499999999997,2096.678559909999900,8,BNYB053,"13 Spruce St, Toronto, ON M5A 2H6",10/15/2017 0:22,15,0,43.663310000000003,-79.366860000000003,10/15/2017 1:12,15,1,BNYB053,"455 Cooperage St, Toronto, ON M5A 1G9",10/15/2017 1:27,15,1,43.651930000000000,-79.356499999999997,10/15/2017 2:47,15,2
8,0,9,43.651930000000000,-79.356499999999997,43.664819999999999,-79.446550000000002,10218.648191200000000,9,BNYB053,"455 Cooperage St, Toronto, ON M5A 1G9",10/15/2017 1:27,15,1,43.651930000000000,-79.356499999999997,10/15/2017 2:47,15,2,BNYB053,"277 Lappin Ave, Toronto, ON M6H 1Y9",10/15/2017 3:12,15,3,43.664819999999999,-79.446550000000002,10/15/2017 10:32,15,10
9,0,10,43.664819999999999,-79.446550000000002,43.661290000000001,-79.443920000000006,617.074450347000040,10,BNYB053,"277 Lappin Ave, Toronto, ON M6H 1Y9",10/15/2017 3:12,15,3,43.664819999999999,-79.446550000000002,10/15/2017 10:32,15,10,BNYB053,"586-640 Lansdowne Ave, Toronto, ON M6H 3Y7",10/15/2017 12:13,15,12,43.661290000000001,-79.443920000000006,10/15/2017 12:44,15,12
10,0,11,43.661290000000001,-79.443920000000006,43.664870000000001,-79.404730000000001,4397.255785499999500,11,BNYB053,"586-640 Lansdowne Ave, Toronto, ON M6H 3Y7",10/15/2017 12:13,15,12,43.661290000000001,-79.443920000000006,10/15/2017 12:44,15,12,BNYB053,"272 Robert St, Toronto, ON M5S 2K8",10/15/2017 13:39,15,13,43.664870000000001,-79.404730000000001,10/15/2017 15:04,15,15
11,0,12,43.664870000000001,-79.404730000000001,43.660130000000002,-79.430570000000003,2967.530347360000200,12,BNYB053,"272 Robert St, Toronto, ON M5S 2K8",10/15/2017 13:39,15,13,43.664870000000001,-79.404730000000001,10/15/2017 15:04,15,15,BNYB053,"357 Rusholme Rd, Toronto, ON M6H 2Z4",10/15/2017 15:19,15,15,43.660130000000002,-79.430570000000003,10/15/2017 15:25,15,15
12,0,13,43.660130000000002,-79.430570000000003,43.670079999999999,-79.441199999999995,1935.132899120000000,13,BNYB053,"357 Rusholme Rd, Toronto, ON M6H 2Z4",10/15/2017 15:19,15,15,43.660130000000002,-79.430570000000003,10/15/2017 15:25,15,15,BNYB053,"11 Brandon Ave, Toronto, ON M6H 2C8",10/15/2017 15:45,15,15,43.670079999999999,-79.441199999999995,10/15/2017 18:20,15,18
13,0,14,43.647790000000001,-79.392870000000002,43.690600000000003,-79.348399999999998,8240.888479940000300,14,BNYB054,"111 Peter St, Toronto, ON M5V 2G9",10/15/2017 0:16,15,0,43.647790000000001,-79.392870000000002,10/15/2017 2:02,15,2,BNYB054,"128 Gamble Ave, East York, ON M4J 2P3",10/15/2017 2:32,15,2,43.690600000000003,-79.348399999999998,10/15/2017 12:59,15,12
14,0,15,43.690600000000003,-79.348399999999998,43.689149999999998,-79.350340000000003,310.594706987999980,15,BNYB054,"128 Gamble Ave, East York, ON M4J 2P3",10/15/2017 2:32,15,2,43.690600000000003,-79.348399999999998,10/15/2017 12:59,15,12,BNYB054,CVPA 96 Cosburn Ave (on street only),10/15/2017 14:14,15,14,43.689149999999998,-79.350340000000003,10/15/2017 15:30,15,15
15,0,16,43.689149999999998,-79.350340000000003,43.669589999999999,-79.341170000000005,3179.078551789999900,16,BNYB054,CVPA 96 Cosburn Ave (on street only),10/15/2017 14:14,15,14,43.689149999999998,-79.350340000000003,10/15/2017 15:30,15,15,BNYB054,"388 Pape Ave, Toronto, ON M4K 3P4",10/15/2017 15:55,15,15,43.669589999999999,-79.341170000000005,10/15/2017 16:20,15,16
16,0,17,43.669589999999999,-79.341170000000005,43.649650000000001,-79.375029999999995,4860.183992029999900,17,BNYB054,"388 Pape Ave, Toronto, ON M4K 3P4",10/15/2017 15:55,15,15,43.669589999999999,-79.341170000000005,10/15/2017 16:20,15,16,BNYB054,"47 Rodega Ln, Toronto, ON M5E 1L8",10/15/2017 16:52,15,16,43.649650000000001,-79.375029999999995,10/15/2017 18:30,15,18
17,0,18,43.669899999999998,-79.385289999999998,43.643560000000001,-79.427599999999998,6213.582898110000300,18,BNYB057,"20 Hayden St, Toronto, ON M4Y 1V8",10/15/2017 0:01,15,0,43.669899999999998,-79.385289999999998,10/15/2017 3:23,15,3,BNYB057,"26 Gladstone Ave, Toronto, ON M6J 3K6",10/15/2017 3:43,15,3,43.643560000000001,-79.427599999999998,10/15/2017 9:17,15,9
18,0,19,43.643560000000001,-79.427599999999998,43.637779999999999,-79.424009999999996,974.787456223000050,19,BNYB057,"26 Gladstone Ave, Toronto, ON M6J 3K6",10/15/2017 3:43,15,3,43.643560000000001,-79.427599999999998,10/15/2017 9:17,15,9,BNYB057,GreenP-1155 King st W(no double parking),10/15/2017 11:07,15,11,43.637779999999999,-79.424009999999996,10/15/2017 12:49,15,12
19,0,20,43.637779999999999,-79.424009999999996,43.677320000000002,-79.357470000000006,9585.428639019999500,20,BNYB057,GreenP-1155 King st W(no double parking),10/15/2017 11:07,15,11,43.637779999999999,-79.424009999999996,10/15/2017 12:49,15,12,BNYB057,Green P-35 Erindale Ave(no double parking),10/15/2017 13:24,15,13,43.677320000000002,-79.357470000000006,10/15/2017 14:09,15,14
20,0,21,43.677320000000002,-79.357470000000006,43.654010000000000,-79.371729999999999,3922.670919400000000,21,BNYB057,Green P-35 Erindale Ave(no double parking),10/15/2017 13:24,15,13,43.677320000000002,-79.357470000000006,10/15/2017 14:09,15,14,BNYB057,"175 Queen St E, Toronto, ON M5A 1S2",10/15/2017 14:29,15,14,43.654010000000000,-79.371729999999999,10/15/2017 14:44,15,14
21,0,22,43.654010000000000,-79.371729999999999,43.666040000000002,-79.375470000000007,1897.337829210000100,22,BNYB057,"175 Queen St E, Toronto, ON M5A 1S2",10/15/2017 14:29,15,14,43.654010000000000,-79.371729999999999,10/15/2017 14:44,15,14,BNYB057,Starlight -155 Wellesley St E (rsvd spaces only),10/15/2017 14:54,15,14,43.666040000000002,-79.375470000000007,10/15/2017 15:14,15,15
22,0,23,43.666040000000002,-79.375470000000007,43.650880000000001,-79.359399999999994,2939.638477829999800,23,BNYB057,Starlight -155 Wellesley St E (rsvd spaces only),10/15/2017 14:54,15,14,43.666040000000002,-79.375470000000007,10/15/2017 15:14,15,15,BNYB057,"50 Mill St, Toronto, ON M5A 1G3",10/15/2017 15:35,15,15,43.650880000000001,-79.359399999999994,10/15/2017 16:46,15,16
23,0,24,43.650880000000001,-79.359399999999994,43.666300000000000,-79.380189999999999,3314.467578400000100,24,BNYB057,"50 Mill St, Toronto, ON M5A 1G3",10/15/2017 15:35,15,15,43.650880000000001,-79.359399999999994,10/15/2017 16:46,15,16,BNYB057,Starlight-80 Wellesley St E (behind building),10/15/2017 17:09,15,17,43.666300000000000,-79.380189999999999,10/15/2017 17:09,15,17
24,0,25,43.666300000000000,-79.380189999999999,43.647030000000001,-79.373300000000000,3062.570691930000100,25,BNYB057,Starlight-80 Wellesley St E (behind building),10/15/2017 17:09,15,17,43.666300000000000,-79.380189999999999,10/15/2017 17:09,15,17,BNYB057,Unit Park-73 The Esplanade(surface lot),10/15/2017 17:34,15,17,43.647030000000001,-79.373300000000000,10/15/2017 18:30,15,18
25,0,26,43.642840000000000,-79.430310000000006,43.669950000000000,-79.437340000000006,4244.028700480000200,26,BNYB058,"11-17 Noble St, Toronto, ON M6K",10/15/2017 12:18,15,12,43.642840000000000,-79.430310000000006,10/15/2017 12:18,15,12,BNYB058,"310 Bartlett Ave N, Toronto, ON M6H 2B9",10/15/2017 13:19,15,13,43.669950000000000,-79.437340000000006,10/15/2017 15:45,15,15
26,0,27,43.669950000000000,-79.437340000000006,43.670099999999998,-79.441170000000000,426.978154657999990,27,BNYB058,"310 Bartlett Ave N, Toronto, ON M6H 2B9",10/15/2017 13:19,15,13,43.669950000000000,-79.437340000000006,10/15/2017 15:45,15,15,BNYB058,"11 Brandon Ave, Toronto, ON M6H 2C8",10/15/2017 16:57,15,16,43.670099999999998,-79.441170000000000,10/15/2017 17:54,15,17
27,0,28,43.653680000000001,-79.415149999999997,43.655079999999998,-79.421670000000006,757.092000254000030,28,BNYB059,"112 Grace St, Toronto, ON M6J 2S2",10/15/2017 0:01,15,0,43.653680000000001,-79.415149999999997,10/15/2017 3:12,15,3,BNYB059,"240 Roxton Rd, Toronto, ON M6G 3P9",10/15/2017 3:58,15,3,43.655079999999998,-79.421670000000006,10/15/2017 6:45,15,6
28,0,29,43.655079999999998,-79.421670000000006,43.669110000000003,-79.456450000000004,4432.935918999999600,29,BNYB059,"240 Roxton Rd, Toronto, ON M6G 3P9",10/15/2017 3:58,15,3,43.655079999999998,-79.421670000000006,10/15/2017 6:45,15,6,BNYB059,"47 Uxbridge Ave, Toronto, ON M6N 1A5",10/15/2017 7:31,15,7,43.669110000000003,-79.456450000000004,10/15/2017 18:30,15,18
29,0,30,43.663159999999998,-79.310040000000001,43.658479999999997,-79.406920000000000,10808.649456100000000,30,BNYB063,"1679-1681 Lake Shore Blvd E, Toronto, ON M4L 3W6",10/15/2017 0:01,15,0,43.663159999999998,-79.310040000000001,10/15/2017 16:30,15,16,BNYB063,"22 Vankoughnet St, Toronto, ON M5S",10/15/2017 17:29,15,17,43.658479999999997,-79.406920000000000,10/15/2017 18:05,15,18
30,0,31,43.685060000000000,-79.315650000000005,43.685099999999998,-79.315700000000007,8.300295739430000,31,BNYB071,"1951-1983 Danforth Ave, Toronto, ON M4C 1J4",10/15/2017 0:01,15,0,43.685060000000000,-79.315650000000005,10/15/2017 7:51,15,7,BNYB071,"1946 Danforth Ave, Toronto, ON M4C 1J4",10/15/2017 12:03,15,12,43.685099999999998,-79.315700000000007,10/15/2017 12:03,15,12
31,0,32,43.685099999999998,-79.315700000000007,43.685029999999998,-79.315240000000003,52.328457578500000,32,BNYB071,"1946 Danforth Ave, Toronto, ON M4C 1J4",10/15/2017 12:03,15,12,43.685099999999998,-79.315700000000007,10/15/2017 12:03,15,12,BNYB071,"108 E Lynn Ave, Toronto, ON M4C 3X2",10/15/2017 12:08,15,12,43.685029999999998,-79.315240000000003,10/15/2017 12:08,15,12
32,0,33,43.641640000000002,-79.399159999999995,43.660449999999997,-79.478459999999998,9289.884513940000000,33,BNYB072,Green P-10 Portland St(No Double Parking),10/15/2017 0:01,15,0,43.641640000000002,-79.399159999999995,10/15/2017 4:49,15,4,BNYB072,"476 Annette St, Toronto, ON M6P 1S2",10/15/2017 5:25,15,5,43.660449999999997,-79.478459999999998,10/15/2017 7:00,15,7
33,0,34,43.660449999999997,-79.478459999999998,43.646599999999999,-79.394769999999994,9556.922924250000500,34,BNYB072,"476 Annette St, Toronto, ON M6P 1S2",10/15/2017 5:25,15,5,43.660449999999997,-79.478459999999998,10/15/2017 7:00,15,7,BNYB072,Green P-363 Adelaide St W(no double parking),10/15/2017 7:26,15,7,43.646599999999999,-79.394769999999994,10/15/2017 11:58,15,11
34,0,35,43.646599999999999,-79.394769999999994,43.688910000000000,-79.412859999999995,6815.514227579999900,35,BNYB072,Green P-363 Adelaide St W(no double parking),10/15/2017 7:26,15,7,43.646599999999999,-79.394769999999994,10/15/2017 11:58,15,11,BNYB072,"418 Spadina Rd, Toronto, ON M5P 2W4",10/15/2017 8:42,15,8,43.688910000000000,-79.412859999999995,10/15/2017 11:17,15,11
35,0,36,43.688910000000000,-79.412859999999995,43.637790000000003,-79.401550000000000,7966.556187850000200,36,BNYB072,"418 Spadina Rd, Toronto, ON M5P 2W4",10/15/2017 8:42,15,8,43.688910000000000,-79.412859999999995,10/15/2017 11:17,15,11,BNYB072,The Garrison-169 Fort York BLVD (1 car/space only),10/15/2017 12:23,15,12,43.637790000000003,-79.401550000000000,10/15/2017 16:30,15,16
36,0,37,43.637790000000003,-79.401550000000000,43.665680000000002,-79.309479999999994,11111.162559000000000,37,BNYB072,The Garrison-169 Fort York BLVD (1 car/space only),10/15/2017 12:23,15,12,43.637790000000003,-79.401550000000000,10/15/2017 16:30,15,16,BNYB072,"55 Winners Cir, Toronto, ON M4L 3Y7",10/15/2017 17:34,15,17,43.665680000000002,-79.309479999999994,10/15/2017 18:30,15,18
37,0,38,43.636910000000000,-79.409719999999993,43.637779999999999,-79.424009999999996,1596.374244650000000,38,BNYB074,Green P-800 Fleet St(No Double Parking),10/15/2017 0:01,15,0,43.636910000000000,-79.409719999999993,10/15/2017 11:27,15,11,BNYB074,GreenP-1155 King st W(no double parking),10/15/2017 11:58,15,11,43.637779999999999,-79.424009999999996,10/15/2017 12:03,15,12
38,0,39,43.637779999999999,-79.424009999999996,43.639119999999998,-79.414490000000001,1079.619575859999900,39,BNYB074,GreenP-1155 King st W(no double parking),10/15/2017 11:58,15,11,43.637779999999999,-79.424009999999996,10/15/2017 12:03,15,12,BNYB074,"69 Lynn Williams St, Toronto, ON M6K 3R7",10/15/2017 13:19,15,13,43.639119999999998,-79.414490000000001,10/15/2017 13:59,15,13
39,0,40,43.639119999999998,-79.414490000000001,43.642449999999997,-79.404849999999996,1189.104694290000000,40,BNYB074,"69 Lynn Williams St, Toronto, ON M6K 3R7",10/15/2017 13:19,15,13,43.639119999999998,-79.414490000000001,10/15/2017 13:59,15,13,BNYB074,"43A Tecumseth St, Toronto, ON M5V 2R8",10/15/2017 14:44,15,14,43.642449999999997,-79.404849999999996,10/15/2017 14:44,15,14
40,0,41,43.642449999999997,-79.404849999999996,43.638590000000001,-79.385480000000001,2236.515055830000200,41,BNYB074,"43A Tecumseth St, Toronto, ON M5V 2R8",10/15/2017 14:44,15,14,43.642449999999997,-79.404849999999996,10/15/2017 14:44,15,14,BNYB074,TargetPark-249 Queens Quay W(Radisson Garage),10/15/2017 15:04,15,15,43.638590000000001,-79.385480000000001,10/15/2017 15:14,15,15
41,0,42,43.638590000000001,-79.385480000000001,43.641109999999998,-79.391610000000000,784.800259772999990,42,BNYB074,TargetPark-249 Queens Quay W(Radisson Garage),10/15/2017 15:04,15,15,43.638590000000001,-79.385480000000001,10/15/2017 15:14,15,15,BNYB074,"Impark-65 Navy Wharf(underground garage, 5 spaces)",10/15/2017 15:25,15,15,43.641109999999998,-79.391610000000000,10/15/2017 15:55,15,15
42,0,43,43.642940000000003,-79.426869999999994,43.673540000000003,-79.459770000000006,5965.075956089999600,43,BNYB077,"1204 Queen St W, Toronto, ON M6J 1J6",10/15/2017 0:42,15,0,43.642940000000003,-79.426869999999994,10/15/2017 10:57,15,10,BNYB077,"87 Hounslow Heath Rd, Toronto, ON M6N 1G7",10/15/2017 11:37,15,11,43.673540000000003,-79.459770000000006,10/15/2017 15:04,15,15
43,0,44,43.673540000000003,-79.459770000000006,43.644500000000001,-79.427949999999996,5702.081874350000400,44,BNYB077,"87 Hounslow Heath Rd, Toronto, ON M6N 1G7",10/15/2017 11:37,15,11,43.673540000000003,-79.459770000000006,10/15/2017 15:04,15,15,BNYB077,"66 Gladstone Ave, Toronto, ON M6J 3K8",10/15/2017 16:05,15,16,43.644500000000001,-79.427949999999996,10/15/2017 16:25,15,16
44,0,45,43.644500000000001,-79.427949999999996,43.665419999999997,-79.463690000000000,5117.551462380000000,45,BNYB077,"66 Gladstone Ave, Toronto, ON M6J 3K8",10/15/2017 16:05,15,16,43.644500000000001,-79.427949999999996,10/15/2017 16:25,15,16,BNYB077,"2828A Dundas St W, Toronto, ON M6P 1Y7",10/15/2017 16:57,15,16,43.665419999999997,-79.463690000000000,10/15/2017 17:09,15,17
45,0,46,43.647030000000001,-79.373300000000000,43.655999999999999,-79.379930000000002,1565.007237130000000,46,BNYB080,Unit Park-73 The Esplanade(surface lot),10/15/2017 0:01,15,0,43.647030000000001,-79.373300000000000,10/15/2017 1:12,15,1,BNYB080,Green P-25 Dundas St E(no double parking),10/15/2017 1:22,15,1,43.655999999999999,-79.379930000000002,10/15/2017 12:08,15,12
46,0,47,43.655999999999999,-79.379930000000002,43.638590000000001,-79.385480000000001,2748.700188970000000,47,BNYB080,Green P-25 Dundas St E(no double parking),10/15/2017 1:22,15,1,43.655999999999999,-79.379930000000002,10/15/2017 12:08,15,12,BNYB080,TargetPark-249 Queens Quay W(Radisson Garage),10/15/2017 15:30,15,15,43.638590000000001,-79.385480000000001,10/15/2017 17:29,15,17
47,0,48,43.664760000000001,-79.340149999999994,43.665540000000000,-79.338629999999995,207.456230092000000,48,BNYB081,"90 Boston Ave, Toronto, ON M4M 2T9",10/15/2017 10:52,15,10,43.664760000000001,-79.340149999999994,10/15/2017 12:18,15,12,BNYB081,"1290-1292 Dundas St E, Toronto, ON M4M 1S6",10/15/2017 13:44,15,13,43.665540000000000,-79.338629999999995,10/15/2017 13:49,15,13
48,0,49,43.665540000000000,-79.338629999999995,43.655909999999999,-79.372910000000005,4093.639443449999800,49,BNYB081,"1290-1292 Dundas St E, Toronto, ON M4M 1S6",10/15/2017 13:44,15,13,43.665540000000000,-79.338629999999995,10/15/2017 13:49,15,13,BNYB081,"226 A George St, Toronto, ON M5A 2N1",10/15/2017 14:09,15,14,43.655909999999999,-79.372910000000005,10/15/2017 14:24,15,14
49,0,50,43.655909999999999,-79.372910000000005,43.686279999999996,-79.352509999999995,5196.469055419999700,50,BNYB081,"226 A George St, Toronto, ON M5A 2N1",10/15/2017 14:09,15,14,43.655909999999999,-79.372910000000005,10/15/2017 14:24,15,14,BNYB081,"1097-1098 Logan Ave, Toronto, ON M4K",10/15/2017 14:54,15,14,43.686279999999996,-79.352509999999995,10/15/2017 18:30,15,18
50,0,51,43.640659999999997,-79.394610000000000,43.671379999999999,-79.391180000000006,4742.070009269999900,51,BNYB082,"Impark-22 Fort York(garage under sobeys, 5 spaces)",10/15/2017 10:57,15,10,43.640659999999997,-79.394610000000000,10/15/2017 17:14,15,17,BNYB082,"79 Scollard St, Toronto, ON M5R 1G4",10/15/2017 12:39,15,12,43.671379999999999,-79.391180000000006,10/15/2017 15:25,15,15
51,0,52,43.671379999999999,-79.391180000000006,43.644350000000003,-79.388840000000002,4167.195419329999800,52,BNYB082,"79 Scollard St, Toronto, ON M5R 1G4",10/15/2017 12:39,15,12,43.671379999999999,-79.391180000000006,10/15/2017 15:25,15,15,BNYB082,"4 John St, Toronto, ON M5V",10/15/2017 15:45,15,15,43.644350000000003,-79.388840000000002,10/15/2017 16:25,15,16
52,0,53,43.642650000000003,-79.448710000000005,43.660829999999997,-79.406750000000002,5444.382795649999900,53,BNYB083,"200 Galley Ave, Toronto, ON M6R",10/15/2017 0:01,15,0,43.642650000000003,-79.448710000000005,10/15/2017 11:37,15,11,BNYB083,"152 Borden St, Toronto, ON M5S 2N3",10/15/2017 12:49,15,12,43.660829999999997,-79.406750000000002,10/15/2017 13:19,15,13
53,0,54,43.660829999999997,-79.406750000000002,43.664070000000002,-79.431600000000003,2810.859033150000000,54,BNYB083,"152 Borden St, Toronto, ON M5S 2N3",10/15/2017 12:49,15,12,43.660829999999997,-79.406750000000002,10/15/2017 13:19,15,13,BNYB083,"41-43 Shanly St, Toronto, ON M6H",10/15/2017 13:44,15,13,43.664070000000002,-79.431600000000003,10/15/2017 13:54,15,13
54,0,55,43.653149999999997,-79.368660000000006,43.654380000000003,-79.444789999999998,8476.865813880000100,55,BNYB085,Green P-323 Richmond St E(no double parking),10/15/2017 11:37,15,11,43.653149999999997,-79.368660000000006,10/15/2017 13:09,15,13,BNYB085,CVPA-134 Sterling Rd (on street only),10/15/2017 14:09,15,14,43.654380000000003,-79.444789999999998,10/15/2017 15:35,15,15
55,0,56,43.654380000000003,-79.444789999999998,43.656489999999998,-79.439459999999997,676.343218528999960,56,BNYB085,CVPA-134 Sterling Rd (on street only),10/15/2017 14:09,15,14,43.654380000000003,-79.444789999999998,10/15/2017 15:35,15,15,BNYB085,"256 Margueretta St, Toronto, ON M6H 3S3",10/15/2017 15:45,15,15,43.656489999999998,-79.439459999999997,10/15/2017 17:54,15,17
56,0,57,43.656489999999998,-79.439459999999997,43.636110000000002,-79.434250000000006,3188.414052770000100,57,BNYB085,"256 Margueretta St, Toronto, ON M6H 3S3",10/15/2017 15:45,15,15,43.656489999999998,-79.439459999999997,10/15/2017 17:54,15,17,BNYB085,"100 Close Ave, Toronto, ON M6K 2V3",10/15/2017 18:30,15,18,43.636110000000002,-79.434250000000006,10/15/2017 18:30,15,18
57,0,58,43.667389999999997,-79.311530000000005,43.645989999999998,-79.399850000000001,10368.461000900001000,58,BNYB088,"1695 Queen St E, Toronto, ON M4L",10/15/2017 0:01,15,0,43.667389999999997,-79.311530000000005,10/15/2017 1:32,15,1,BNYB088,Where I Park-480 Adelaide St W(3 rsvd spaces),10/15/2017 2:12,15,2,43.645989999999998,-79.399850000000001,10/15/2017 2:52,15,2
58,0,59,43.645989999999998,-79.399850000000001,43.658909999999999,-79.376559999999998,3266.964010820000100,59,BNYB088,Where I Park-480 Adelaide St W(3 rsvd spaces),10/15/2017 2:12,15,2,43.645989999999998,-79.399850000000001,10/15/2017 2:52,15,2,BNYB088,"150 Mutual St, Toronto, ON M5B 2M7",10/15/2017 3:18,15,3,43.658909999999999,-79.376559999999998,10/15/2017 9:47,15,9
59,0,60,43.658909999999999,-79.376559999999998,43.664670000000001,-79.321089999999998,6238.179749300000400,60,BNYB088,"150 Mutual St, Toronto, ON M5B 2M7",10/15/2017 3:18,15,3,43.658909999999999,-79.376559999999998,10/15/2017 9:47,15,9,BNYB088,"36 Woodfield Rd, Toronto, ON M4L 2W3",10/15/2017 10:27,15,10,43.664670000000001,-79.321089999999998,10/15/2017 11:07,15,11
60,0,61,43.664670000000001,-79.321089999999998,43.652180000000001,-79.376170000000002,6425.607773589999900,61,BNYB088,"36 Woodfield Rd, Toronto, ON M4L 2W3",10/15/2017 10:27,15,10,43.664670000000001,-79.321089999999998,10/15/2017 11:07,15,11,BNYB088,Impark-47 Richmond St E (dedicated spaces only),10/15/2017 11:53,15,11,43.652180000000001,-79.376170000000002,10/15/2017 13:44,15,13
61,0,62,43.652180000000001,-79.376170000000002,43.649799999999999,-79.444770000000005,7645.290825959999900,62,BNYB088,Impark-47 Richmond St E (dedicated spaces only),10/15/2017 11:53,15,11,43.652180000000001,-79.376170000000002,10/15/2017 13:44,15,13,BNYB088,"367 Sorauren Ave, Toronto, ON M6R 2G5",10/15/2017 18:25,15,18,43.649799999999999,-79.444770000000005,10/15/2017 18:30,15,18
62,0,63,43.684880000000000,-79.316479999999999,43.684699999999999,-79.316239999999993,38.490893672799999,63,BNYB092,"1909 Danforth Ave, Toronto, ON M4C 1J4",10/15/2017 0:01,15,0,43.684880000000000,-79.316479999999999,10/15/2017 8:31,15,8,BNYB092,"112 W Lynn Ave, Toronto, ON M4C 3W2",10/15/2017 8:36,15,8,43.684699999999999,-79.316239999999993,10/15/2017 15:14,15,15
63,0,64,43.684699999999999,-79.316239999999993,43.636910000000000,-79.409719999999993,12742.245425499999000,64,BNYB092,"112 W Lynn Ave, Toronto, ON M4C 3W2",10/15/2017 8:36,15,8,43.684699999999999,-79.316239999999993,10/15/2017 15:14,15,15,BNYB092,Green P-800 Fleet St(No Double Parking),10/15/2017 16:15,15,16,43.636910000000000,-79.409719999999993,10/15/2017 18:30,15,18
64,0,65,43.665179999999999,-79.408860000000004,43.645989999999998,-79.399850000000001,3118.316041550000100,65,BNYB096,"Bagpipe Lane, Toronto, ON M5S 1Y4",10/15/2017 0:01,15,0,43.665179999999999,-79.408860000000004,10/15/2017 11:02,15,11,BNYB096,Where I Park-480 Adelaide St W(3 rsvd spaces),10/15/2017 11:53,15,11,43.645989999999998,-79.399850000000001,10/15/2017 16:40,15,16
65,0,66,43.645989999999998,-79.399850000000001,43.688769999999998,-79.306359999999998,12314.772673800000000,66,BNYB096,Where I Park-480 Adelaide St W(3 rsvd spaces),10/15/2017 11:53,15,11,43.645989999999998,-79.399850000000001,10/15/2017 16:40,15,16,BNYB096,"58 Gates Ave, Toronto, ON M4C 1S9",10/15/2017 17:29,15,17,43.688769999999998,-79.306359999999998,10/15/2017 18:30,15,18
66,0,67,43.645989999999998,-79.399850000000001,43.671289999999999,-79.389330000000001,4065.235567719999800,67,BNYB104,Where I Park-480 Adelaide St W(3 rsvd spaces),10/15/2017 10:57,15,10,43.645989999999998,-79.399850000000001,10/15/2017 14:09,15,14,BNYB104,Green P-37 Yorkville Ave (garage),10/15/2017 14:34,15,14,43.671289999999999,-79.389330000000001,10/15/2017 18:20,15,18
67,0,68,43.656829999999999,-79.426310000000001,43.667940000000002,-79.456659999999999,3786.463777420000000,68,BNYB106,"71 Delaware Ave, Toronto, ON M6H 2S9",10/15/2017 0:01,15,0,43.656829999999999,-79.426310000000001,10/15/2017 7:31,15,7,BNYB106,"48 Pelham Ave, Toronto, ON M6N 1A6",10/15/2017 7:46,15,7,43.667940000000002,-79.456659999999999,10/15/2017 12:39,15,12
68,0,69,43.667940000000002,-79.456659999999999,43.673499999999997,-79.457089999999994,857.025847716000040,69,BNYB106,"48 Pelham Ave, Toronto, ON M6N 1A6",10/15/2017 7:46,15,7,43.667940000000002,-79.456659999999999,10/15/2017 12:39,15,12,BNYB106,"203 Laughton Ave, Toronto, ON M6N 2X7",10/15/2017 13:14,15,13,43.673499999999997,-79.457089999999994,10/15/2017 15:09,15,15
69,0,70,43.673499999999997,-79.457089999999994,43.643210000000003,-79.432749999999999,5391.061031469999800,70,BNYB106,"203 Laughton Ave, Toronto, ON M6N 2X7",10/15/2017 13:14,15,13,43.673499999999997,-79.457089999999994,10/15/2017 15:09,15,15,BNYB106,"23 Earnbridge St, Toronto, ON M6K 1N2",10/15/2017 15:30,15,15,43.643210000000003,-79.432749999999999,10/15/2017 16:57,15,16
70,0,71,43.643210000000003,-79.432749999999999,43.646549999999998,-79.418210000000002,1698.180377510000000,71,BNYB106,"23 Earnbridge St, Toronto, ON M6K 1N2",10/15/2017 15:30,15,15,43.643210000000003,-79.432749999999999,10/15/2017 16:57,15,16,BNYB106,"49 Givins St, Toronto, ON M6J 2X8",10/15/2017 17:29,15,17,43.646549999999998,-79.418210000000002,10/15/2017 18:30,15,18
71,0,72,43.641109999999998,-79.391610000000000,43.641340000000000,-79.437020000000004,5055.141945460000000,72,BNYB108,"Impark-65 Navy Wharf(underground garage, 5 spaces)",10/15/2017 0:01,15,0,43.641109999999998,-79.391610000000000,10/15/2017 1:02,15,1,BNYB108,"14-16 Lansdowne Ave, Toronto, ON M6K 2V8",10/15/2017 1:17,15,1,43.641340000000000,-79.437020000000004,10/15/2017 9:52,15,9
72,0,73,43.641340000000000,-79.437020000000004,43.654299999999999,-79.400080000000003,4570.002404269999700,73,BNYB108,"14-16 Lansdowne Ave, Toronto, ON M6K 2V8",10/15/2017 1:17,15,1,43.641340000000000,-79.437020000000004,10/15/2017 9:52,15,9,BNYB108,Green P-20 St. Andrew St(no double parking),10/15/2017 10:12,15,10,43.654299999999999,-79.400080000000003,10/15/2017 15:04,15,15
73,0,74,43.654299999999999,-79.400080000000003,43.639499999999998,-79.414299999999997,2773.033550000000100,74,BNYB108,Green P-20 St. Andrew St(no double parking),10/15/2017 10:12,15,10,43.654299999999999,-79.400080000000003,10/15/2017 15:04,15,15,BNYB108,"60 Pirandello St, Toronto, ON M6K 3S1",10/15/2017 15:30,15,15,43.639499999999998,-79.414299999999997,10/15/2017 18:30,15,18
74,0,75,43.667000000000002,-79.330119999999994,43.667619999999999,-79.308899999999994,2364.125756810000000,75,BNYB112,"1561 Dundas St E, Toronto, ON M4L 1K9",10/15/2017 0:01,15,0,43.667000000000002,-79.330119999999994,10/15/2017 11:02,15,11,BNYB112,"113 Sarah Ashbridge Ave, Toronto, ON M4L 3Y1",10/15/2017 11:17,15,11,43.667619999999999,-79.308899999999994,10/15/2017 13:14,15,13
75,0,76,43.667619999999999,-79.308899999999994,43.667529999999999,-79.312870000000004,442.155359863999990,76,BNYB112,"113 Sarah Ashbridge Ave, Toronto, ON M4L 3Y1",10/15/2017 11:17,15,11,43.667619999999999,-79.308899999999994,10/15/2017 13:14,15,13,BNYB112,"Penny Ln, Toronto, ON M4L 1S4",10/15/2017 14:19,15,14,43.667529999999999,-79.312870000000004,10/15/2017 14:44,15,14
76,0,77,43.667529999999999,-79.312870000000004,43.637779999999999,-79.424009999999996,13191.591311100001000,77,BNYB112,"Penny Ln, Toronto, ON M4L 1S4",10/15/2017 14:19,15,14,43.667529999999999,-79.312870000000004,10/15/2017 14:44,15,14,BNYB112,GreenP-1155 King st W(no double parking),10/15/2017 15:19,15,15,43.637779999999999,-79.424009999999996,10/15/2017 16:00,15,16
77,0,78,43.637779999999999,-79.424009999999996,43.698950000000004,-79.425899999999999,9416.090122039999200,78,BNYB112,GreenP-1155 King st W(no double parking),10/15/2017 15:19,15,15,43.637779999999999,-79.424009999999996,10/15/2017 16:00,15,16,BNYB112,"1 Peveril Hill N, York, ON M6C 3A9",10/15/2017 17:24,15,17,43.698950000000004,-79.425899999999999,10/15/2017 18:30,15,18
78,0,79,43.706879999999998,-79.395309999999995,43.704120000000003,-79.391340000000000,613.143578832000000,79,BNYB113,"70 Dunfield Ave, Toronto, ON M4S 3A4",10/15/2017 0:01,15,0,43.706879999999998,-79.395309999999995,10/15/2017 8:26,15,8,BNYB113,"2 Redpath Ave, Toronto, ON M4S",10/15/2017 9:12,15,9,43.704120000000003,-79.391340000000000,10/15/2017 9:37,15,9
79,0,80,43.704120000000003,-79.391340000000000,43.708689999999997,-79.386030000000005,919.055900468999990,80,BNYB113,"2 Redpath Ave, Toronto, ON M4S",10/15/2017 9:12,15,9,43.704120000000003,-79.391340000000000,10/15/2017 9:37,15,9,BNYB113,"338 Forman Ave, Toronto, ON M4S 2S7",10/15/2017 17:39,15,17,43.708689999999997,-79.386030000000005,10/15/2017 18:30,15,18
80,0,81,43.668779999999998,-79.381360000000001,43.669789999999999,-79.480800000000002,11070.702061700000000,81,BNYB114,TargetPark-88 Isabella St (no double parking),10/15/2017 0:01,15,0,43.668779999999998,-79.381360000000001,10/15/2017 1:17,15,1,BNYB114,"9 Britannia Ave, Toronto, ON M6N 3T6",10/15/2017 1:52,15,1,43.669789999999999,-79.480800000000002,10/15/2017 11:53,15,11
81,0,82,43.669789999999999,-79.480800000000002,43.677619999999997,-79.444220000000001,4246.645976089999700,82,BNYB114,"9 Britannia Ave, Toronto, ON M6N 3T6",10/15/2017 1:52,15,1,43.669789999999999,-79.480800000000002,10/15/2017 11:53,15,11,BNYB114,"1199A St Clair Ave W, Toronto, ON M6E 1B5",10/15/2017 12:44,15,12,43.677619999999997,-79.444220000000001,10/15/2017 18:30,15,18
82,0,83,43.671289999999999,-79.389330000000001,43.669620000000002,-79.385700000000000,478.898997081999990,83,BNYB116,Green P-37 Yorkville Ave (garage),10/15/2017 13:54,15,13,43.671289999999999,-79.389330000000001,10/15/2017 15:25,15,15,BNYB116,"16-20 Hayden St, Toronto, ON M4Y 1V8",10/15/2017 16:15,15,16,43.669620000000002,-79.385700000000000,10/15/2017 16:15,15,16
83,0,84,43.669620000000002,-79.385700000000000,43.669069999999998,-79.382649999999998,349.916226271000030,84,BNYB116,"16-20 Hayden St, Toronto, ON M4Y 1V8",10/15/2017 16:15,15,16,43.669620000000002,-79.385700000000000,10/15/2017 16:15,15,16,BNYB116,"65 Charles St E, Toronto, ON M4Y",10/15/2017 16:20,15,16,43.669069999999998,-79.382649999999998,10/15/2017 18:00,15,18
84,0,85,43.674750000000003,-79.413929999999993,43.647030000000001,-79.373300000000000,6216.961825039999900,85,BNYB118,"315-321 Albany Ave, Toronto, ON M5R 3E2",10/15/2017 5:19,15,5,43.674750000000003,-79.413929999999993,10/15/2017 13:29,15,13,BNYB118,Unit Park-73 The Esplanade(surface lot),10/15/2017 13:59,15,13,43.647030000000001,-79.373300000000000,10/15/2017 13:59,15,13
85,0,86,43.647030000000001,-79.373300000000000,43.644460000000002,-79.410809999999998,4194.269447830000000,86,BNYB118,Unit Park-73 The Esplanade(surface lot),10/15/2017 13:59,15,13,43.647030000000001,-79.373300000000000,10/15/2017 13:59,15,13,BNYB118,"95 Stanley Terrace, Toronto, ON M6J 3V8",10/15/2017 14:34,15,14,43.644460000000002,-79.410809999999998,10/15/2017 14:39,15,14
86,0,87,43.657139999999998,-79.349699999999999,43.664659999999998,-79.471760000000003,13636.841276900001000,87,BNYB122,"126 Eastern Ave, Toronto, ON M4M 3G8",10/15/2017 0:01,15,0,43.657139999999998,-79.349699999999999,10/15/2017 10:42,15,10,BNYB122,"442 Quebec Ave, Toronto, ON M6P 2V4",10/15/2017 11:27,15,11,43.664659999999998,-79.471760000000003,10/15/2017 13:04,15,13
87,0,88,43.647030000000001,-79.373300000000000,43.657989999999998,-79.463250000000002,10154.179171800000000,88,BNYB152,Unit Park-73 The Esplanade(surface lot),10/15/2017 0:01,15,0,43.647030000000001,-79.373300000000000,10/15/2017 0:01,15,0,BNYB152,"215 Glenlake Ave, Toronto, ON M6P",10/15/2017 0:22,15,0,43.657989999999998,-79.463250000000002,10/15/2017 2:42,15,2
88,0,89,43.657989999999998,-79.463250000000002,43.656260000000003,-79.463200000000001,266.246153549999970,89,BNYB152,"215 Glenlake Ave, Toronto, ON M6P",10/15/2017 0:22,15,0,43.657989999999998,-79.463250000000002,10/15/2017 2:42,15,2,BNYB152,"66 Oakmount Rd, Toronto, ON M6P 2M4",10/15/2017 3:33,15,3,43.656260000000003,-79.463200000000001,10/15/2017 16:30,15,16
89,0,90,43.656260000000003,-79.463200000000001,43.657760000000003,-79.464160000000007,254.339111019000000,90,BNYB152,"66 Oakmount Rd, Toronto, ON M6P 2M4",10/15/2017 3:33,15,3,43.656260000000003,-79.463200000000001,10/15/2017 16:30,15,16,BNYB152,"255 Glenlake Ave, Toronto, ON M6P",10/15/2017 18:20,15,18,43.657760000000003,-79.464160000000007,10/15/2017 18:30,15,18
90,0,91,43.670690000000000,-79.414670000000001,43.672600000000003,-79.413079999999994,343.129395305000000,91,BNYB155,"7 Rossmore Rd, Toronto, ON M6G 2M6",10/15/2017 0:01,15,0,43.670690000000000,-79.414670000000001,10/15/2017 10:37,15,10,BNYB155,"247 Albany Ave, Toronto, ON M5R 3C7",10/15/2017 13:04,15,13,43.672600000000003,-79.413079999999994,10/15/2017 14:49,15,14
91,0,92,43.672600000000003,-79.413079999999994,43.639139999999998,-79.414869999999993,5152.099617019999600,92,BNYB155,"247 Albany Ave, Toronto, ON M5R 3C7",10/15/2017 13:04,15,13,43.672600000000003,-79.413079999999994,10/15/2017 14:49,15,14,BNYB155,"50 Lynn Williams St, Toronto, ON M6K 3R7",10/15/2017 15:30,15,15,43.639139999999998,-79.414869999999993,10/15/2017 18:30,15,18
92,0,93,43.683590000000002,-79.322170000000000,43.682279999999999,-79.319410000000005,367.505978975000000,93,BNYB159,"1625-1661 Danforth Ave, Toronto, ON M4C 1H7",10/15/2017 0:01,15,0,43.683590000000002,-79.322170000000000,10/15/2017 8:47,15,8,BNYB159,"125 Drayton Ave, Toronto, ON M4C 3L8",10/15/2017 8:57,15,8,43.682279999999999,-79.319410000000005,10/15/2017 17:54,15,17
93,0,94,43.682279999999999,-79.319410000000005,43.684130000000003,-79.319580000000002,285.403689240000010,94,BNYB159,"125 Drayton Ave, Toronto, ON M4C 3L8",10/15/2017 8:57,15,8,43.682279999999999,-79.319410000000005,10/15/2017 17:54,15,17,BNYB159,"1769A Danforth Ave, Toronto, ON M4C 1J1",10/15/2017 18:00,15,18,43.684130000000003,-79.319580000000002,10/15/2017 18:30,15,18
94,0,95,43.641669999999998,-79.447350000000000,43.642060000000001,-79.446439999999996,117.732463921999990,95,BNYB160,"82 Roncesvalles Ave, Toronto, ON M6R 2K7",10/15/2017 0:01,15,0,43.641669999999998,-79.447350000000000,10/15/2017 8:31,15,8,BNYB160,"179 Pearson Ave, Toronto, ON M6R 1G4",10/15/2017 8:36,15,8,43.642060000000001,-79.446439999999996,10/15/2017 14:09,15,14
95,0,96,43.642060000000001,-79.446439999999996,43.648460000000000,-79.447940000000003,998.606552020999970,96,BNYB160,"179 Pearson Ave, Toronto, ON M6R 1G4",10/15/2017 8:36,15,8,43.642060000000001,-79.446439999999996,10/15/2017 14:09,15,14,BNYB160,"96 Geoffrey St, Toronto, ON M6R 1P3",10/15/2017 16:20,15,16,43.648460000000000,-79.447940000000003,10/15/2017 16:35,15,16
96,0,97,43.648460000000000,-79.447940000000003,43.655749999999998,-79.457859999999997,1573.980844270000000,97,BNYB160,"96 Geoffrey St, Toronto, ON M6R 1P3",10/15/2017 16:20,15,16,43.648460000000000,-79.447940000000003,10/15/2017 16:35,15,16,BNYB160,"1660 Bloor St W, Toronto, ON M6P 1A8",10/15/2017 16:57,15,16,43.655749999999998,-79.457859999999997,10/15/2017 18:30,15,18
97,0,98,43.649650000000001,-79.430700000000002,43.677799999999998,-79.447770000000006,4730.258741079999700,98,BNYB167,"1458B Dundas St W, Toronto, ON M6J 1Y6",10/15/2017 0:27,15,0,43.649650000000001,-79.430700000000002,10/15/2017 1:37,15,1,BNYB167,"26 Earlscourt Ave, Toronto, ON M6E 4A6",10/15/2017 2:17,15,2,43.677799999999998,-79.447770000000006,10/15/2017 18:30,15,18
98,0,99,43.676589999999997,-79.312709999999996,43.663209999999999,-79.428700000000006,13075.112880000001000,99,BNYB169,"42 Duvernet Ave, Toronto, ON M4L",10/15/2017 0:01,15,0,43.676589999999997,-79.312709999999996,10/15/2017 7:26,15,7,BNYB169,"249 Delaware Ave, Toronto, ON M6H 2T7",10/15/2017 8:06,15,8,43.663209999999999,-79.428700000000006,10/15/2017 10:37,15,10
99,0,100,43.663209999999999,-79.428700000000006,43.649600000000000,-79.429190000000006,2094.799784899999800,100,BNYB169,"249 Delaware Ave, Toronto, ON M6H 2T7",10/15/2017 8:06,15,8,43.663209999999999,-79.428700000000006,10/15/2017 10:37,15,10,BNYB169,"1414 Dundas St W, Toronto, ON M6J 1Y5",10/15/2017 11:22,15,11,43.649600000000000,-79.429190000000006,10/15/2017 11:48,15,11
100,0,101,43.649600000000000,-79.429190000000006,43.696350000000002,-79.431920000000005,7201.544976389999600,101,BNYB169,"1414 Dundas St W, Toronto, ON M6J 1Y5",10/15/2017 11:22,15,11,43.649600000000000,-79.429190000000006,10/15/2017 11:48,15,11,BNYB169,"160 Ava Rd, York, ON M6C 1W5",10/15/2017 12:49,15,12,43.696350000000002,-79.431920000000005,10/15/2017 14:34,15,14
101,0,102,43.696350000000002,-79.431920000000005,43.679400000000001,-79.422359999999998,2818.036357529999800,102,BNYB169,"160 Ava Rd, York, ON M6C 1W5",10/15/2017 12:49,15,12,43.696350000000002,-79.431920000000005,10/15/2017 14:34,15,14,BNYB169,"35-37 Wychwood Ave, Toronto, ON M6G 2X8",10/15/2017 15:09,15,15,43.679400000000001,-79.422359999999998,10/15/2017 16:10,15,16
102,0,103,43.679400000000001,-79.422359999999998,43.665450000000000,-79.405959999999993,2818.238222040000000,103,BNYB169,"35-37 Wychwood Ave, Toronto, ON M6G 2X8",10/15/2017 15:09,15,15,43.679400000000001,-79.422359999999998,10/15/2017 16:10,15,16,BNYB169,"271-273 Major St, Toronto, ON M5S 2L5",10/15/2017 16:52,15,16,43.665450000000000,-79.405959999999993,10/15/2017 17:34,15,17
103,0,104,43.665450000000000,-79.405959999999993,43.691200000000002,-79.441460000000006,5596.959849539999600,104,BNYB169,"271-273 Major St, Toronto, ON M5S 2L5",10/15/2017 16:52,15,16,43.665450000000000,-79.405959999999993,10/15/2017 17:34,15,17,BNYB169,"12-18 Amherst Ave, York, ON M6E 1Z3",10/15/2017 17:54,15,17,43.691200000000002,-79.441460000000006,10/15/2017 18:30,15,18
104,0,105,43.649360000000001,-79.397660000000002,43.637779999999999,-79.424009999999996,3431.810772519999800,105,BNYB171,"19-53 Cameron St, Toronto, ON M5T 2H1",10/15/2017 1:37,15,1,43.649360000000001,-79.397660000000002,10/15/2017 3:43,15,3,BNYB171,GreenP-1155 King st W(no double parking),10/15/2017 4:29,15,4,43.637779999999999,-79.424009999999996,10/15/2017 9:32,15,9
105,0,106,43.637779999999999,-79.424009999999996,43.644640000000003,-79.410489999999996,1838.117511870000000,106,BNYB171,GreenP-1155 King st W(no double parking),10/15/2017 4:29,15,4,43.637779999999999,-79.424009999999996,10/15/2017 9:32,15,9,BNYB171,"803 Richmond St W, Toronto, ON M6J 3N7",10/15/2017 9:52,15,9,43.644640000000003,-79.410489999999996,10/15/2017 11:02,15,11
106,0,107,43.644640000000003,-79.410489999999996,43.699579999999997,-79.385509999999996,8901.019963529999600,107,BNYB171,"803 Richmond St W, Toronto, ON M6J 3N7",10/15/2017 9:52,15,9,43.644640000000003,-79.410489999999996,10/15/2017 11:02,15,11,BNYB171,"368 Balliol St, Toronto, ON M4S 1E2",10/15/2017 11:48,15,11,43.699579999999997,-79.385509999999996,10/15/2017 12:54,15,12
107,0,108,43.699579999999997,-79.385509999999996,43.641060000000003,-79.433599999999998,10477.129961400000000,108,BNYB171,"368 Balliol St, Toronto, ON M4S 1E2",10/15/2017 11:48,15,11,43.699579999999997,-79.385509999999996,10/15/2017 12:54,15,12,BNYB171,"1325 Queen St W, Toronto, ON M6K 1L8",10/15/2017 13:49,15,13,43.641060000000003,-79.433599999999998,10/15/2017 14:14,15,14
108,0,109,43.641060000000003,-79.433599999999998,43.657739999999997,-79.437590000000000,2604.308403489999800,109,BNYB171,"1325 Queen St W, Toronto, ON M6K 1L8",10/15/2017 13:49,15,13,43.641060000000003,-79.433599999999998,10/15/2017 14:14,15,14,BNYB171,"65-89 Croatia St, Toronto, ON M6H 1K9",10/15/2017 14:44,15,14,43.657739999999997,-79.437590000000000,10/15/2017 14:49,15,14
109,0,110,43.657739999999997,-79.437590000000000,43.649540000000002,-79.392700000000005,5153.933534949999700,110,BNYB171,"65-89 Croatia St, Toronto, ON M6H 1K9",10/15/2017 14:44,15,14,43.657739999999997,-79.437590000000000,10/15/2017 14:49,15,14,BNYB171,"280-282 Queen St W, Toronto, ON M5V 2A1",10/15/2017 15:55,15,15,43.649540000000002,-79.392700000000005,10/15/2017 16:35,15,16
110,0,111,43.649540000000002,-79.392700000000005,43.679549999999999,-79.346209999999999,6936.127115600000300,111,BNYB171,"280-282 Queen St W, Toronto, ON M5V 2A1",10/15/2017 15:55,15,15,43.649540000000002,-79.392700000000005,10/15/2017 16:35,15,16,BNYB171,"77 Gough Ave, Toronto, ON M4K 3N9",10/15/2017 17:09,15,17,43.679549999999999,-79.346209999999999,10/15/2017 18:30,15,18
111,0,112,43.653199999999998,-79.402169999999998,43.654179999999997,-79.403180000000006,188.084282948000010,112,BNYB178,"17 Wales Ave, Toronto, ON M5T 1J2",10/15/2017 0:22,15,0,43.653199999999998,-79.402169999999998,10/15/2017 11:07,15,11,BNYB178,Green P-35 Bellevue Ave(no double parking),10/15/2017 13:39,15,13,43.654179999999997,-79.403180000000006,10/15/2017 14:29,15,14
112,0,113,43.654179999999997,-79.403180000000006,43.640659999999997,-79.394610000000000,2288.283718010000000,113,BNYB178,Green P-35 Bellevue Ave(no double parking),10/15/2017 13:39,15,13,43.654179999999997,-79.403180000000006,10/15/2017 14:29,15,14,BNYB178,"Impark-22 Fort York(garage under sobeys, 5 spaces)",10/15/2017 15:04,15,15,43.640659999999997,-79.394610000000000,10/15/2017 15:09,15,15
113,0,114,43.640970000000003,-79.414619999999999,43.641150000000003,-79.423869999999994,1030.077489439999900,114,BNYB179,"1 Shaw St, Toronto, ON M6K 0A1",10/15/2017 0:01,15,0,43.640970000000003,-79.414619999999999,10/15/2017 8:31,15,8,BNYB179,"W Toronto Railpath, Toronto, ON M6J 1J4",10/15/2017 14:24,15,14,43.641150000000003,-79.423869999999994,10/15/2017 14:24,15,14
114,0,115,43.641150000000003,-79.423869999999994,43.662750000000003,-79.424999999999997,3325.596494649999800,115,BNYB179,"W Toronto Railpath, Toronto, ON M6J 1J4",10/15/2017 14:24,15,14,43.641150000000003,-79.423869999999994,10/15/2017 14:24,15,14,BNYB179,"6 Carling Ave, Toronto, ON M6G 3R9",10/15/2017 14:44,15,14,43.662750000000003,-79.424999999999997,10/15/2017 14:54,15,14
115,0,116,43.662750000000003,-79.424999999999997,43.663620000000002,-79.454930000000004,3334.480984899999800,116,BNYB179,"6 Carling Ave, Toronto, ON M6G 3R9",10/15/2017 14:44,15,14,43.662750000000003,-79.424999999999997,10/15/2017 14:54,15,14,BNYB179,"67 Edwin Ave, Toronto, ON M6P 3Z5",10/15/2017 15:19,15,15,43.663620000000002,-79.454930000000004,10/15/2017 15:25,15,15
116,0,117,43.663620000000002,-79.454930000000004,43.637740000000001,-79.428749999999994,4934.238927020000100,117,BNYB179,"67 Edwin Ave, Toronto, ON M6P 3Z5",10/15/2017 15:19,15,15,43.663620000000002,-79.454930000000004,10/15/2017 15:25,15,15,BNYB179,"135-149 Tyndall Ave, Toronto, ON M6K",10/15/2017 15:50,15,15,43.637740000000001,-79.428749999999994,10/15/2017 17:14,15,17
117,0,118,43.637740000000001,-79.428749999999994,43.639550000000000,-79.417429999999996,1290.525994350000000,118,BNYB179,"135-149 Tyndall Ave, Toronto, ON M6K",10/15/2017 15:50,15,15,43.637740000000001,-79.428749999999994,10/15/2017 17:14,15,17,BNYB179,"110 Lynn Williams St, Toronto, ON M6K 3R6",10/15/2017 17:34,15,17,43.639550000000000,-79.417429999999996,10/15/2017 17:34,15,17
118,0,119,43.639550000000000,-79.417429999999996,43.634999999999998,-79.435130000000001,2090.956863630000000,119,BNYB179,"110 Lynn Williams St, Toronto, ON M6K 3R6",10/15/2017 17:34,15,17,43.639550000000000,-79.417429999999996,10/15/2017 17:34,15,17,BNYB179,"87-91 Jameson Ave, Toronto, ON M6K",10/15/2017 17:54,15,17,43.634999999999998,-79.435130000000001,10/15/2017 18:30,15,18
119,0,120,43.690730000000002,-79.461070000000007,43.656440000000003,-79.461830000000006,5278.186131739999800,120,BNYB184,"2-4 Keith Ave, Toronto, ON M6E",10/15/2017 0:01,15,0,43.690730000000002,-79.461070000000007,10/15/2017 7:46,15,7,BNYB184,"62-80 Mountview Ave, Toronto, ON M6P 2L3",10/15/2017 10:47,15,10,43.656440000000003,-79.461830000000006,10/15/2017 18:30,15,18
120,0,121,43.656440000000003,-79.461830000000006,43.649299999999997,-79.452839999999995,1486.028654120000100,121,BNYB184,"62-80 Mountview Ave, Toronto, ON M6P 2L3",10/15/2017 10:47,15,10,43.656440000000003,-79.461830000000006,10/15/2017 18:30,15,18,BNYB184,"70 Constance St, Toronto, ON M6R 1S6",10/15/2017 17:24,15,17,43.649299999999997,-79.452839999999995,10/15/2017 18:10,15,18
121,0,122,43.637779999999999,-79.424009999999996,43.637110000000000,-79.436639999999997,1409.737093730000000,122,BNYB185,GreenP-1155 King st W(no double parking),10/15/2017 9:52,15,9,43.637779999999999,-79.424009999999996,10/15/2017 10:22,15,10,BNYB185,"1434 King St W, Toronto, ON M6K 1H7",10/15/2017 10:32,15,10,43.637110000000000,-79.436639999999997,10/15/2017 11:22,15,11
122,0,123,43.637110000000000,-79.436639999999997,43.640920000000001,-79.426640000000006,1258.038220859999900,123,BNYB185,"1434 King St W, Toronto, ON M6K 1H7",10/15/2017 10:32,15,10,43.637110000000000,-79.436639999999997,10/15/2017 11:22,15,11,BNYB185,"25 Laidlaw St, Toronto, ON M6K 1X3",10/15/2017 11:37,15,11,43.640920000000001,-79.426640000000006,10/15/2017 11:42,15,11
123,0,124,43.640920000000001,-79.426640000000006,43.664160000000003,-79.409059999999997,4076.093363259999900,124,BNYB185,"25 Laidlaw St, Toronto, ON M6K 1X3",10/15/2017 11:37,15,11,43.640920000000001,-79.426640000000006,10/15/2017 11:42,15,11,BNYB185,"25 Lennox St, Toronto, ON M5S",10/15/2017 12:28,15,12,43.664160000000003,-79.409059999999997,10/15/2017 13:04,15,13
124,0,125,43.664160000000003,-79.409059999999997,43.663989999999998,-79.409970000000001,104.624073370999990,125,BNYB185,"25 Lennox St, Toronto, ON M5S",10/15/2017 12:28,15,12,43.664160000000003,-79.409059999999997,10/15/2017 13:04,15,13,BNYB185,"16 Lennox St, Toronto, ON M5S 2R5",10/15/2017 15:50,15,15,43.663989999999998,-79.409970000000001,10/15/2017 18:30,15,18
125,0,126,43.685209999999998,-79.285489999999996,43.685110000000002,-79.286259999999999,87.087326141700004,126,BNYB187,"274 Swanwick Ave, Scarborough, ON M1N 1W4",10/15/2017 0:01,15,0,43.685209999999998,-79.285489999999996,10/15/2017 10:27,15,10,BNYB187,"Swanwick Ave, Toronto, ON M4E",10/15/2017 18:30,15,18,43.685110000000002,-79.286259999999999,10/15/2017 18:30,15,18
126,0,127,43.698810000000002,-79.431650000000005,43.697310000000002,-79.434619999999995,403.298489884999980,127,BNYB191,"30 Menin Rd, York, ON M6C 3J2",10/15/2017 0:01,15,0,43.698810000000002,-79.431650000000005,10/15/2017 8:52,15,8,BNYB191,"21 Gloucester Grove, York, ON M6C 1Z8",10/15/2017 9:22,15,9,43.697310000000002,-79.434619999999995,10/15/2017 15:40,15,15
127,0,128,43.697310000000002,-79.434619999999995,43.686650000000000,-79.428680000000000,1769.364873770000000,128,BNYB191,"21 Gloucester Grove, York, ON M6C 1Z8",10/15/2017 9:22,15,9,43.697310000000002,-79.434619999999995,10/15/2017 15:40,15,15,BNYB191,"8 Cherrywood Ave, York, ON M6C 2X2",10/15/2017 16:15,15,16,43.686650000000000,-79.428680000000000,10/15/2017 16:52,15,16
128,0,129,43.686650000000000,-79.428680000000000,43.647300000000001,-79.432419999999993,6069.911086729999600,129,BNYB191,"8 Cherrywood Ave, York, ON M6C 2X2",10/15/2017 16:15,15,16,43.686650000000000,-79.428680000000000,10/15/2017 16:52,15,16,BNYB191,"39 Bank St, Toronto, ON M6K 1R4",10/15/2017 17:19,15,17,43.647300000000001,-79.432419999999993,10/15/2017 17:39,15,17
129,0,130,43.647300000000001,-79.432419999999993,43.669440000000002,-79.426169999999999,3476.982067030000100,130,BNYB191,"39 Bank St, Toronto, ON M6K 1R4",10/15/2017 17:19,15,17,43.647300000000001,-79.432419999999993,10/15/2017 17:39,15,17,BNYB191,"1040 Shaw St, Toronto, ON M6G 3N3",10/15/2017 18:30,15,18,43.669440000000002,-79.426169999999999,10/15/2017 18:30,15,18
130,0,131,43.671080000000003,-79.375360000000001,43.668779999999998,-79.381360000000001,755.913811080999950,131,BNYB192,"390-408 Bleecker St, Toronto, ON M4X 1K7",10/15/2017 0:01,15,0,43.671080000000003,-79.375360000000001,10/15/2017 13:44,15,13,BNYB192,TargetPark-88 Isabella St (no double parking),10/15/2017 16:52,15,16,43.668779999999998,-79.381360000000001,10/15/2017 17:02,15,17
131,0,132,43.668779999999998,-79.381360000000001,43.633319999999998,-79.414609999999996,6592.647137990000400,132,BNYB192,TargetPark-88 Isabella St (no double parking),10/15/2017 16:52,15,16,43.668779999999998,-79.381360000000001,10/15/2017 17:02,15,17,BNYB192,"137-139 Princes' Blvd, Toronto, ON M6K 3C3",10/15/2017 17:29,15,17,43.633319999999998,-79.414609999999996,10/15/2017 18:30,15,18
132,0,133,43.640659999999997,-79.394610000000000,43.665590000000002,-79.474480000000000,9683.152168959999500,133,BNYB194,"Impark-22 Fort York(garage under sobeys, 5 spaces)",10/15/2017 0:01,15,0,43.640659999999997,-79.394610000000000,10/15/2017 3:07,15,3,BNYB194,"3138 Dundas St W, Toronto, ON M6P 2A1",10/15/2017 3:23,15,3,43.665590000000002,-79.474480000000000,10/15/2017 7:06,15,7
133,0,134,43.665590000000002,-79.474480000000000,43.648960000000002,-79.456999999999994,3214.626916579999900,134,BNYB194,"3138 Dundas St W, Toronto, ON M6P 2A1",10/15/2017 3:23,15,3,43.665590000000002,-79.474480000000000,10/15/2017 7:06,15,7,BNYB194,"26 High Park Gardens, Toronto, ON M6R 1S9",10/15/2017 8:16,15,8,43.648960000000002,-79.456999999999994,10/15/2017 11:32,15,11
134,0,135,43.648960000000002,-79.456999999999994,43.666359999999997,-79.475909999999999,3405.748772490000200,135,BNYB194,"26 High Park Gardens, Toronto, ON M6R 1S9",10/15/2017 8:16,15,8,43.648960000000002,-79.456999999999994,10/15/2017 11:32,15,11,BNYB194,"78-80 Maria St, Toronto, ON M6P",10/15/2017 12:13,15,12,43.666359999999997,-79.475909999999999,10/15/2017 18:30,15,18
135,0,136,43.671750000000003,-79.326149999999998,43.660179999999997,-79.327349999999996,1785.494446490000000,136,BNYB200,"14 Glenside Ave, Toronto, ON M4L 2T5",10/15/2017 0:32,15,0,43.671750000000003,-79.326149999999998,10/15/2017 9:07,15,9,BNYB200,"843 Eastern Ave, Toronto, ON M4L 1A2",10/15/2017 9:27,15,9,43.660179999999997,-79.327349999999996,10/15/2017 10:57,15,10
136,0,137,43.660179999999997,-79.327349999999996,43.682250000000003,-79.401150000000001,8889.851260170000400,137,BNYB200,"843 Eastern Ave, Toronto, ON M4L 1A2",10/15/2017 9:27,15,9,43.660179999999997,-79.327349999999996,10/15/2017 10:57,15,10,BNYB200,"18 Edmund Ave, Toronto, ON M4V 1H3",10/15/2017 13:39,15,13,43.682250000000003,-79.401150000000001,10/15/2017 13:59,15,13
137,0,138,43.682250000000003,-79.401150000000001,43.682270000000003,-79.400530000000003,69.086712023100006,138,BNYB200,"18 Edmund Ave, Toronto, ON M4V 1H3",10/15/2017 13:39,15,13,43.682250000000003,-79.401150000000001,10/15/2017 13:59,15,13,BNYB200,"10 Benvenuto Pl, Toronto, ON M4V 1H2",10/15/2017 17:49,15,17,43.682270000000003,-79.400530000000003,10/15/2017 18:30,15,18
138,0,139,43.684880000000000,-79.316540000000003,43.683160000000001,-79.316469999999995,264.882571932000020,139,BNYB207,"1904 Danforth Ave, Toronto, ON M4C 1J4",10/15/2017 0:01,15,0,43.684880000000000,-79.316540000000003,10/15/2017 8:31,15,8,BNYB207,"5 Aldridge Ave, Toronto, ON M4C 3W3",10/15/2017 8:42,15,8,43.683160000000001,-79.316469999999995,10/15/2017 18:00,15,18
139,0,140,43.683160000000001,-79.316469999999995,43.685250000000003,-79.314499999999995,389.357265632000010,140,BNYB207,"5 Aldridge Ave, Toronto, ON M4C 3W3",10/15/2017 8:42,15,8,43.683160000000001,-79.316469999999995,10/15/2017 18:00,15,18,BNYB207,"2007 Danforth Ave, Toronto, ON M4C 1J7",10/15/2017 18:05,15,18,43.685250000000003,-79.314499999999995,10/15/2017 18:30,15,18
140,0,141,43.668779999999998,-79.381360000000001,43.643050000000002,-79.447720000000004,8381.107456789999600,141,BNYB208,TargetPark-88 Isabella St (no double parking),10/15/2017 0:01,15,0,43.668779999999998,-79.381360000000001,10/15/2017 2:02,15,2,BNYB208,"131 A Roncesvalles Ave, Toronto, ON M6R 2L2",10/15/2017 2:32,15,2,43.643050000000002,-79.447720000000004,10/15/2017 8:26,15,8
141,0,142,43.643050000000002,-79.447720000000004,43.641489999999997,-79.449330000000003,299.512363653000020,142,BNYB208,"131 A Roncesvalles Ave, Toronto, ON M6R 2L2",10/15/2017 2:32,15,2,43.643050000000002,-79.447720000000004,10/15/2017 8:26,15,8,BNYB208,"235 Pearson Ave, Toronto, ON M6R 1G7",10/15/2017 8:36,15,8,43.641489999999997,-79.449330000000003,10/15/2017 10:17,15,10
142,0,143,43.641489999999997,-79.449330000000003,43.652940000000001,-79.434809999999999,2390.691481030000000,143,BNYB208,"235 Pearson Ave, Toronto, ON M6R 1G7",10/15/2017 8:36,15,8,43.641489999999997,-79.449330000000003,10/15/2017 10:17,15,10,BNYB208,"189 Sheridan Ave, Toronto, ON M6H 1E4",10/15/2017 10:57,15,10,43.652940000000001,-79.434809999999999,10/15/2017 11:22,15,11
143,0,144,43.652940000000001,-79.434809999999999,43.647669999999998,-79.443759999999997,1284.522668399999900,144,BNYB208,"189 Sheridan Ave, Toronto, ON M6H 1E4",10/15/2017 10:57,15,10,43.652940000000001,-79.434809999999999,10/15/2017 11:22,15,11,BNYB208,"75 Wabash Ave, Toronto, ON M6R 1N2",10/15/2017 12:03,15,12,43.647669999999998,-79.443759999999997,10/15/2017 12:59,15,12
144,0,145,43.647669999999998,-79.443759999999997,43.649970000000003,-79.443539999999999,354.689084896000000,145,BNYB208,"75 Wabash Ave, Toronto, ON M6R 1N2",10/15/2017 12:03,15,12,43.647669999999998,-79.443759999999997,10/15/2017 12:59,15,12,BNYB208,"W Toronto Railpath, Toronto, ON M6R 3B6",10/15/2017 13:59,15,13,43.649970000000003,-79.443539999999999,10/15/2017 15:50,15,15
145,0,146,43.649970000000003,-79.443539999999999,43.651519999999998,-79.448390000000003,590.218523248000000,146,BNYB208,"W Toronto Railpath, Toronto, ON M6R 3B6",10/15/2017 13:59,15,13,43.649970000000003,-79.443539999999999,10/15/2017 15:50,15,15,BNYB208,"75 Lynd Ave, Toronto, ON M6R 1T8",10/15/2017 17:09,15,17,43.651519999999998,-79.448390000000003,10/15/2017 18:20,15,18
146,0,147,43.649650000000001,-79.430840000000003,43.643300000000004,-79.431290000000004,978.158629503000040,147,BNYB217,"1466 Dundas St W, Toronto, ON M6J 1Y6",10/15/2017 0:01,15,0,43.649650000000001,-79.430840000000003,10/15/2017 0:37,15,0,BNYB217,"16 Strickland Ave, Toronto, ON M6K 2H8",10/15/2017 0:47,15,0,43.643300000000004,-79.431290000000004,10/15/2017 7:36,15,7
147,0,148,43.643300000000004,-79.431290000000004,43.642280000000000,-79.352580000000003,8763.362235209999200,148,BNYB217,"16 Strickland Ave, Toronto, ON M6K 2H8",10/15/2017 0:47,15,0,43.643300000000004,-79.431290000000004,10/15/2017 7:36,15,7,BNYB217,"54 Polson St, Toronto, ON M5A 1A4",10/15/2017 8:06,15,8,43.642280000000000,-79.352580000000003,10/15/2017 11:48,15,11
148,0,149,43.642280000000000,-79.352580000000003,43.649549999999998,-79.361689999999996,1509.718677310000000,149,BNYB217,"54 Polson St, Toronto, ON M5A 1A4",10/15/2017 8:06,15,8,43.642280000000000,-79.352580000000003,10/15/2017 11:48,15,11,BNYB217,"Green P-31 Parliament St(surface lot, not garage)",10/15/2017 12:03,15,12,43.649549999999998,-79.361689999999996,10/15/2017 12:08,15,12
149,0,150,43.649549999999998,-79.361689999999996,43.650269999999999,-79.357680000000002,459.929436011000010,150,BNYB217,"Green P-31 Parliament St(surface lot, not garage)",10/15/2017 12:03,15,12,43.649549999999998,-79.361689999999996,10/15/2017 12:08,15,12,BNYB217,"12 Rack House Mews, Toronto, ON M5A 3C4",10/15/2017 15:14,15,15,43.650269999999999,-79.357680000000002,10/15/2017 15:45,15,15
150,0,151,43.650269999999999,-79.357680000000002,43.637779999999999,-79.424009999999996,7629.709948669999900,151,BNYB217,"12 Rack House Mews, Toronto, ON M5A 3C4",10/15/2017 15:14,15,15,43.650269999999999,-79.357680000000002,10/15/2017 15:45,15,15,BNYB217,GreenP-1155 King st W(no double parking),10/15/2017 16:52,15,16,43.637779999999999,-79.424009999999996,10/15/2017 18:30,15,18
151,0,152,43.672669999999997,-79.437899999999999,43.660130000000002,-79.441260000000000,1965.690032329999900,152,BNYB242,"411 Bartlett Ave, Toronto, ON M6H 3G8",10/15/2017 0:01,15,0,43.672669999999997,-79.437899999999999,10/15/2017 1:07,15,1,BNYB242,"37 Emerson Ave, Toronto, ON M6H 3S7",10/15/2017 1:27,15,1,43.660130000000002,-79.441260000000000,10/15/2017 2:07,15,2
152,0,153,43.660130000000002,-79.441260000000000,43.663950000000000,-79.450310000000002,1166.389958530000100,153,BNYB242,"37 Emerson Ave, Toronto, ON M6H 3S7",10/15/2017 1:27,15,1,43.660130000000002,-79.441260000000000,10/15/2017 2:07,15,2,BNYB242,"31 Antler St, Toronto, ON M6P 3R2",10/15/2017 2:27,15,2,43.663950000000000,-79.450310000000002,10/15/2017 14:09,15,14
153,0,154,43.663950000000000,-79.450310000000002,43.648829999999997,-79.485020000000006,4510.206938240000500,154,BNYB242,"31 Antler St, Toronto, ON M6P 3R2",10/15/2017 2:27,15,2,43.663950000000000,-79.450310000000002,10/15/2017 14:09,15,14,BNYB242,"2475 Bloor St W, Toronto, ON M6S 1P7",10/15/2017 7:56,15,7,43.648829999999997,-79.485020000000006,10/15/2017 9:47,15,9
154,0,155,43.648829999999997,-79.485020000000006,43.649549999999998,-79.361689999999996,13729.480904500000000,155,BNYB242,"2475 Bloor St W, Toronto, ON M6S 1P7",10/15/2017 7:56,15,7,43.648829999999997,-79.485020000000006,10/15/2017 9:47,15,9,BNYB242,"Green P-31 Parliament St(surface lot, not garage)",10/15/2017 14:54,15,14,43.649549999999998,-79.361689999999996,10/15/2017 16:30,15,16
155,0,156,43.645150000000001,-79.455119999999994,43.664380000000001,-79.406800000000004,6138.993330319999600,156,BNYB251,"52 High Park Blvd, Toronto, ON M6R 1M8",10/15/2017 0:22,15,0,43.645150000000001,-79.455119999999994,10/15/2017 11:32,15,11,BNYB251,"237 Brunswick Ave, Toronto, ON M5S 2M6",10/15/2017 12:18,15,12,43.664380000000001,-79.406800000000004,10/15/2017 15:45,15,15
156,0,157,43.664380000000001,-79.406800000000004,43.669539999999998,-79.406430000000000,795.145484114000060,157,BNYB251,"237 Brunswick Ave, Toronto, ON M5S 2M6",10/15/2017 12:18,15,12,43.664380000000001,-79.406800000000004,10/15/2017 15:45,15,15,BNYB251,"53 Walmer Rd, Toronto, ON M5R 2X2",10/15/2017 17:39,15,17,43.669539999999998,-79.406430000000000,10/15/2017 17:54,15,17
157,0,158,43.681060000000002,-79.334059999999994,43.681310000000003,-79.331190000000007,321.796146551999980,158,BNYB252,"1117 Danforth Ave, Toronto, ON M4J 1M5",10/15/2017 0:01,15,0,43.681060000000002,-79.334059999999994,10/15/2017 9:22,15,9,BNYB252,"26 Ladysmith Ave, Toronto, ON M4J 4H7",10/15/2017 9:27,15,9,43.681310000000003,-79.331190000000007,10/15/2017 16:15,15,16
158,0,159,43.681310000000003,-79.331190000000007,43.680680000000002,-79.340950000000007,1090.797374880000000,159,BNYB252,"26 Ladysmith Ave, Toronto, ON M4J 4H7",10/15/2017 9:27,15,9,43.681310000000003,-79.331190000000007,10/15/2017 16:15,15,16,BNYB252,"35 Langford Ave, Toronto, ON M4J 3E4",10/15/2017 16:40,15,16,43.680680000000002,-79.340950000000007,10/15/2017 18:30,15,18
159,0,160,43.662810000000000,-79.334260000000000,43.671160000000000,-79.322469999999996,1836.775701390000000,160,BNYB254,"7-11 Coady Ave, Toronto, ON M4M 2Y9",10/15/2017 0:01,15,0,43.662810000000000,-79.334260000000000,10/15/2017 12:59,15,12,BNYB254,"92 Hiawatha Rd, Toronto, ON M4L 2X8",10/15/2017 13:34,15,13,43.671160000000000,-79.322469999999996,10/15/2017 15:35,15,15
160,0,161,43.671160000000000,-79.322469999999996,43.640419999999999,-79.426479999999998,12507.131908100000000,161,BNYB254,"92 Hiawatha Rd, Toronto, ON M4L 2X8",10/15/2017 13:34,15,13,43.671160000000000,-79.322469999999996,10/15/2017 15:35,15,15,BNYB254,"18 Laidlaw St, Toronto, ON M6K 1X2",10/15/2017 16:40,15,16,43.640419999999999,-79.426479999999998,10/15/2017 17:49,15,17
161,0,162,43.640419999999999,-79.426479999999998,43.649839999999998,-79.410349999999994,2307.398778249999900,162,BNYB254,"18 Laidlaw St, Toronto, ON M6K 1X2",10/15/2017 16:40,15,16,43.640419999999999,-79.426479999999998,10/15/2017 17:49,15,17,BNYB254,"142 Manning Ave, Toronto, ON M6J 2K5",10/15/2017 18:30,15,18,43.649839999999998,-79.410349999999994,10/15/2017 18:30,15,18
162,0,163,43.637779999999999,-79.424009999999996,43.668590000000002,-79.318920000000006,12622.474594699999000,163,BNYB256,GreenP-1155 King st W(no double parking),10/15/2017 9:52,15,9,43.637779999999999,-79.424009999999996,10/15/2017 10:42,15,10,BNYB256,"1870-1892 Dundas St E, Toronto, ON M4L",10/15/2017 11:17,15,11,43.668590000000002,-79.318920000000006,10/15/2017 13:24,15,13
163,0,164,43.668590000000002,-79.318920000000006,43.688890000000001,-79.332480000000004,3470.116255160000000,164,BNYB256,"1870-1892 Dundas St E, Toronto, ON M4L",10/15/2017 11:17,15,11,43.668590000000002,-79.318920000000006,10/15/2017 13:24,15,13,BNYB256,"171 Linsmore Cres, East York, ON M4J 4L3",10/15/2017 13:54,15,13,43.688890000000001,-79.332480000000004,10/15/2017 18:30,15,18
164,0,165,43.668210000000002,-79.482069999999993,43.667949999999998,-79.456980000000001,2793.292626599999900,165,BNYB268,"334 Ryding Ave, Toronto, ON M6N 1H5",10/15/2017 10:42,15,10,43.668210000000002,-79.482069999999993,10/15/2017 16:20,15,16,BNYB268,"66 Pelham Ave, Toronto, ON M6N 1A6",10/15/2017 18:30,15,18,43.667949999999998,-79.456980000000001,10/15/2017 18:30,15,18
165,0,166,43.683360000000000,-79.285399999999996,43.646590000000003,-79.385109999999997,12458.730767800000000,166,BNYB269,"Woodale Ave, Toronto, ON M4E",10/15/2017 0:01,15,0,43.683360000000000,-79.285399999999996,10/15/2017 16:20,15,16,BNYB269,On street-18 Emily St(extra parking in garage),10/15/2017 17:09,15,17,43.646590000000003,-79.385109999999997,10/15/2017 17:19,15,17
166,0,167,43.646590000000003,-79.385109999999997,43.703299999999999,-79.409210000000002,9131.324294430000000,167,BNYB269,On street-18 Emily St(extra parking in garage),10/15/2017 17:09,15,17,43.646590000000003,-79.385109999999997,10/15/2017 17:19,15,17,BNYB269,"110 Braemar Ave, Toronto, ON M5P 2L4",10/15/2017 17:54,15,17,43.703299999999999,-79.409210000000002,10/15/2017 18:30,15,18
167,0,168,43.655999999999999,-79.379930000000002,43.655439999999999,-79.378020000000006,229.415348607999990,168,BNYB276,Green P-25 Dundas St E(no double parking),10/15/2017 11:07,15,11,43.655999999999999,-79.379930000000002,10/15/2017 12:03,15,12,BNYB276,"70-78 Bond St, Toronto, ON M5B",10/15/2017 15:25,15,15,43.655439999999999,-79.378020000000006,10/15/2017 15:35,15,15
168,0,169,43.655439999999999,-79.378020000000006,43.655740000000002,-79.372870000000006,575.150593117999960,169,BNYB276,"70-78 Bond St, Toronto, ON M5B",10/15/2017 15:25,15,15,43.655439999999999,-79.378020000000006,10/15/2017 15:35,15,15,BNYB276,"226 George St, Toronto, ON M5A",10/15/2017 16:40,15,16,43.655740000000002,-79.372870000000006,10/15/2017 16:40,15,16
169,0,170,43.655740000000002,-79.372870000000006,43.654899999999998,-79.391700000000000,2100.126659579999800,170,BNYB276,"226 George St, Toronto, ON M5A",10/15/2017 16:40,15,16,43.655740000000002,-79.372870000000006,10/15/2017 16:40,15,16,BNYB276,"142-156 McCaul St, Toronto, ON M5T 1W3",10/15/2017 17:09,15,17,43.654899999999998,-79.391700000000000,10/15/2017 17:24,15,17
170,0,171,43.654899999999998,-79.391700000000000,43.678170000000001,-79.424599999999998,5122.202910179999900,171,BNYB276,"142-156 McCaul St, Toronto, ON M5T 1W3",10/15/2017 17:09,15,17,43.654899999999998,-79.391700000000000,10/15/2017 17:24,15,17,BNYB276,"62 Tyrrel Ave, Toronto, ON M6G 2G3",10/15/2017 17:49,15,17,43.678170000000001,-79.424599999999998,10/15/2017 18:30,15,18
171,0,172,43.699579999999997,-79.379630000000006,43.648330000000001,-79.375879999999995,7898.876700910000200,172,BNYB283,"538-540 Merton St, Toronto, ON M4S 1B3",10/15/2017 0:01,15,0,43.699579999999997,-79.379630000000006,10/15/2017 6:05,15,6,BNYB283,"20 Scott St, Toronto, ON M5E",10/15/2017 7:00,15,7,43.648330000000001,-79.375879999999995,10/15/2017 9:17,15,9
172,0,173,43.648330000000001,-79.375879999999995,43.641640000000002,-79.399159999999995,2788.390864430000000,173,BNYB283,"20 Scott St, Toronto, ON M5E",10/15/2017 7:00,15,7,43.648330000000001,-79.375879999999995,10/15/2017 9:17,15,9,BNYB283,Green P-10 Portland St(No Double Parking),10/15/2017 9:32,15,9,43.641640000000002,-79.399159999999995,10/15/2017 9:32,15,9
173,0,174,43.641640000000002,-79.399159999999995,43.640630000000002,-79.397009999999995,285.341670226000020,174,BNYB283,Green P-10 Portland St(No Double Parking),10/15/2017 9:32,15,9,43.641640000000002,-79.399159999999995,10/15/2017 9:32,15,9,BNYB283,"15 Iceboat Terr, Toronto, ON M5V 4A5",10/15/2017 9:37,15,9,43.640630000000002,-79.397009999999995,10/15/2017 18:30,15,18
174,0,175,43.654179999999997,-79.403180000000006,43.693730000000002,-79.342609999999993,9083.818679930000100,175,BNYB284,Green P-35 Bellevue Ave(no double parking),10/15/2017 1:17,15,1,43.654179999999997,-79.403180000000006,10/15/2017 9:32,15,9,BNYB284,"393 Donlands Ave, East York, ON M4J 3S2",10/15/2017 10:07,15,10,43.693730000000002,-79.342609999999993,10/15/2017 12:28,15,12
175,0,176,43.693730000000002,-79.342609999999993,43.692639999999997,-79.343130000000002,177.517747469000000,176,BNYB284,"393 Donlands Ave, East York, ON M4J 3S2",10/15/2017 10:07,15,10,43.693730000000002,-79.342609999999993,10/15/2017 12:28,15,12,BNYB284,"272 Torrens Ave, East York, ON M4J 2P5",10/15/2017 15:30,15,15,43.692639999999997,-79.343130000000002,10/15/2017 17:02,15,17
176,0,177,43.685310000000001,-79.314490000000006,43.684849999999997,-79.315190000000001,105.291649254000010,177,BNYB292,"2009 Danforth Ave, Toronto, ON M4C 1J7",10/15/2017 0:01,15,0,43.685310000000001,-79.314490000000006,10/15/2017 8:01,15,8,BNYB292,"108 E Lynn Ave, Toronto, ON M4C 3X2",10/15/2017 12:08,15,12,43.684849999999997,-79.315190000000001,10/15/2017 12:13,15,12
177,0,178,43.684849999999997,-79.315190000000001,43.689410000000002,-79.293580000000006,2505.943851659999800,178,BNYB292,"108 E Lynn Ave, Toronto, ON M4C 3X2",10/15/2017 12:08,15,12,43.684849999999997,-79.315190000000001,10/15/2017 12:13,15,12,BNYB292,"24-26 Luttrell Ave, Toronto, ON M4C 5E3",10/15/2017 13:54,15,13,43.689410000000002,-79.293580000000006,10/15/2017 17:09,15,17
178,0,179,43.689410000000002,-79.293580000000006,43.678620000000002,-79.344729999999998,5931.300278419999800,179,BNYB292,"24-26 Luttrell Ave, Toronto, ON M4C 5E3",10/15/2017 13:54,15,13,43.689410000000002,-79.293580000000006,10/15/2017 17:09,15,17,BNYB292,"705 Pape Ave, Toronto, ON M4K 3S6",10/15/2017 18:30,15,18,43.678620000000002,-79.344729999999998,10/15/2017 18:30,15,18
179,0,180,43.641210000000001,-79.395120000000006,43.641620000000003,-79.397530000000003,275.593506719000000,180,BNYB293,"Impark-22 Fort York(garage under sobeys, 5 spaces)",10/15/2017 0:01,15,0,43.641210000000001,-79.395120000000006,10/15/2017 10:37,15,10,BNYB293,"500 Front St W, Toronto, ON M5V 1B8",10/15/2017 11:12,15,11,43.641620000000003,-79.397530000000003,10/15/2017 13:09,15,13
180,0,181,43.641620000000003,-79.397530000000003,43.655999999999999,-79.379930000000002,2955.124345140000100,181,BNYB293,"500 Front St W, Toronto, ON M5V 1B8",10/15/2017 11:12,15,11,43.641620000000003,-79.397530000000003,10/15/2017 13:09,15,13,BNYB293,Green P-25 Dundas St E(no double parking),10/15/2017 13:34,15,13,43.655999999999999,-79.379930000000002,10/15/2017 18:30,15,18
181,0,182,43.662920000000000,-79.442449999999994,43.638820000000003,-79.433660000000003,3834.723285789999900,182,BNYB296,"131-135 Emerson Ave, Toronto, ON M6H 3T2",10/15/2017 0:01,15,0,43.662920000000000,-79.442449999999994,10/15/2017 1:02,15,1,BNYB296,"195-219 Dunn Ave, Toronto, ON M6K 2S1",10/15/2017 1:37,15,1,43.638820000000003,-79.433660000000003,10/15/2017 9:22,15,9
182,0,183,43.638820000000003,-79.433660000000003,43.636910000000000,-79.409719999999993,2681.133465760000000,183,BNYB296,"195-219 Dunn Ave, Toronto, ON M6K 2S1",10/15/2017 1:37,15,1,43.638820000000003,-79.433660000000003,10/15/2017 9:22,15,9,BNYB296,Green P-800 Fleet St(No Double Parking),10/15/2017 11:17,15,11,43.636910000000000,-79.409719999999993,10/15/2017 15:30,15,15
183,0,184,43.636910000000000,-79.409719999999993,43.638930000000002,-79.416740000000004,840.966511607000030,184,BNYB296,Green P-800 Fleet St(No Double Parking),10/15/2017 11:17,15,11,43.636910000000000,-79.409719999999993,10/15/2017 15:30,15,15,BNYB296,"69 Lynn Williams St, Toronto, ON M6K 3R6",10/15/2017 15:45,15,15,43.638930000000002,-79.416740000000004,10/15/2017 16:35,15,16
184,0,185,43.638930000000002,-79.416740000000004,43.640659999999997,-79.394610000000000,2477.831525449999800,185,BNYB296,"69 Lynn Williams St, Toronto, ON M6K 3R6",10/15/2017 15:45,15,15,43.638930000000002,-79.416740000000004,10/15/2017 16:35,15,16,BNYB296,"Impark-22 Fort York(garage under sobeys, 5 spaces)",10/15/2017 16:52,15,16,43.640659999999997,-79.394610000000000,10/15/2017 18:30,15,18
185,0,186,43.681300000000000,-79.456069999999997,43.652340000000002,-79.440770000000001,4771.038386989999700,186,BNYB303,"2 Innes Ave, Toronto, ON M6E 1M8",10/15/2017 0:01,15,0,43.681300000000000,-79.456069999999997,10/15/2017 15:14,15,15,BNYB303,"330-340 Lansdowne Ave, Toronto, ON M6H 3Y1",10/15/2017 15:40,15,15,43.652340000000002,-79.440770000000001,10/15/2017 15:45,15,15
186,0,187,43.652340000000002,-79.440770000000001,43.673110000000001,-79.440100000000001,3196.962536630000200,187,BNYB303,"330-340 Lansdowne Ave, Toronto, ON M6H 3Y1",10/15/2017 15:40,15,15,43.652340000000002,-79.440770000000001,10/15/2017 15:45,15,15,BNYB303,"1359 V Davenport Rd, Toronto, ON M6H 2H5",10/15/2017 16:25,15,16,43.673110000000001,-79.440100000000001,10/15/2017 16:25,15,16
187,0,188,43.673110000000001,-79.440100000000001,43.639420000000001,-79.424560000000000,5464.702962970000000,188,BNYB303,"1359 V Davenport Rd, Toronto, ON M6H 2H5",10/15/2017 16:25,15,16,43.673110000000001,-79.440100000000001,10/15/2017 16:25,15,16,BNYB303,"1177 King St W, Toronto, ON M6K 1E9",10/15/2017 17:09,15,17,43.639420000000001,-79.424560000000000,10/15/2017 17:24,15,17
188,0,189,43.639420000000001,-79.424560000000000,43.647579999999998,-79.421329999999998,1305.742853329999900,189,BNYB303,"1177 King St W, Toronto, ON M6K 1E9",10/15/2017 17:09,15,17,43.639420000000001,-79.424560000000000,10/15/2017 17:24,15,17,BNYB303,"26-28 Foxley St, Toronto, ON M6J 1R1",10/15/2017 18:00,15,18,43.647579999999998,-79.421329999999998,10/15/2017 18:20,15,18
189,0,190,43.661870000000000,-79.334180000000003,43.640960000000000,-79.460870000000000,14465.330934500000000,190,BNYB307,"104 Larchmount Ave, Toronto, ON M4M 2Y7",10/15/2017 0:01,15,0,43.661870000000000,-79.334180000000003,10/15/2017 10:32,15,10,BNYB307,"11 Colborne Lodge Dr, Toronto, ON M6R",10/15/2017 11:12,15,11,43.640960000000000,-79.460870000000000,10/15/2017 18:30,15,18
190,0,191,43.654809999999998,-79.355189999999993,43.639589999999998,-79.424109999999999,8021.478739539999900,191,BNYB312,"55-57 St Lawrence St, Toronto, ON M5A 3N1",10/15/2017 0:01,15,0,43.654809999999998,-79.355189999999993,10/15/2017 2:27,15,2,BNYB312,"1177 King St W, Toronto, ON M6K 1E9",10/15/2017 3:28,15,3,43.639589999999998,-79.424109999999999,10/15/2017 11:48,15,11
191,0,192,43.639589999999998,-79.424109999999999,43.634610000000002,-79.429500000000004,973.018681520999960,192,BNYB312,"1177 King St W, Toronto, ON M6K 1E9",10/15/2017 3:28,15,3,43.639589999999998,-79.424109999999999,10/15/2017 11:48,15,11,BNYB312,"17-29 Spencer Ave, Toronto, ON M6K",10/15/2017 12:44,15,12,43.634610000000002,-79.429500000000004,10/15/2017 17:02,15,17
192,0,193,43.668860000000002,-79.448580000000007,43.682110000000002,-79.333359999999999,12987.346986299999000,193,BNYB313,"7-9 Foundry Ave, Toronto, ON M6H",10/15/2017 0:01,15,0,43.668860000000002,-79.448580000000007,10/15/2017 7:26,15,7,BNYB313,"145 Strathmore Blvd, Toronto, ON M4J 4B7",10/15/2017 8:21,15,8,43.682110000000002,-79.333359999999999,10/15/2017 14:24,15,14
193,0,194,43.682110000000002,-79.333359999999999,43.639180000000003,-79.420910000000006,11773.792844000000000,194,BNYB313,"145 Strathmore Blvd, Toronto, ON M4J 4B7",10/15/2017 8:21,15,8,43.682110000000002,-79.333359999999999,10/15/2017 14:24,15,14,BNYB313,"110 A Atlantic Ave, Toronto, ON M6K 1X9",10/15/2017 15:04,15,15,43.639180000000003,-79.420910000000006,10/15/2017 16:15,15,16
194,0,195,43.639180000000003,-79.420910000000006,43.643569999999997,-79.427539999999993,1000.368583289999900,195,BNYB313,"110 A Atlantic Ave, Toronto, ON M6K 1X9",10/15/2017 15:04,15,15,43.639180000000003,-79.420910000000006,10/15/2017 16:15,15,16,BNYB313,"26 Gladstone Ave, Toronto, ON M6J 3K6",10/15/2017 16:30,15,16,43.643569999999997,-79.427539999999993,10/15/2017 17:34,15,17
195,0,196,43.643569999999997,-79.427539999999993,43.664790000000004,-79.368780000000001,7310.665359380000200,196,BNYB313,"26 Gladstone Ave, Toronto, ON M6J 3K6",10/15/2017 16:30,15,16,43.643569999999997,-79.427539999999993,10/15/2017 17:34,15,17,BNYB313,"51 Aberdeen Ave, Toronto, ON M4X 1A1",10/15/2017 18:00,15,18,43.664790000000004,-79.368780000000001,10/15/2017 18:30,15,18
196,0,197,43.654400000000003,-79.461860000000001,43.654539999999997,-79.462569999999999,81.919503690599996,197,BNYB314,"1800 Bloor St W, Toronto, ON M6P 3K5",10/15/2017 0:01,15,0,43.654400000000003,-79.461860000000001,10/15/2017 8:06,15,8,BNYB314,"10 Oakmount Rd, Toronto, ON M6P 2M6",10/15/2017 8:11,15,8,43.654539999999997,-79.462569999999999,10/15/2017 8:36,15,8
197,0,198,43.651840000000000,-79.407150000000001,43.648240000000001,-79.426209999999998,2192.845814029999900,198,BNYB330,"151 Markham St, Toronto, ON M6J 2G4",10/15/2017 0:16,15,0,43.651840000000000,-79.407150000000001,10/15/2017 2:07,15,2,BNYB330,"271 Lisgar St, Toronto, ON M6J 3G8",10/15/2017 2:22,15,2,43.648240000000001,-79.426209999999998,10/15/2017 9:17,15,9
198,0,199,43.648240000000001,-79.426209999999998,43.646299999999997,-79.473219999999998,5241.632900370000200,199,BNYB330,"271 Lisgar St, Toronto, ON M6J 3G8",10/15/2017 2:22,15,2,43.648240000000001,-79.426209999999998,10/15/2017 9:17,15,9,BNYB330,"2 Kennedy Ave, Toronto, ON M6S 2X5",10/15/2017 9:42,15,9,43.646299999999997,-79.473219999999998,10/15/2017 18:30,15,18
199,0,200,43.707059999999998,-79.392489999999995,43.698950000000004,-79.396529999999998,1327.319211459999900,200,BNYB333,"106 Redpath Ave, Toronto, ON M4S 2J7",10/15/2017 0:01,15,0,43.707059999999998,-79.392489999999995,10/15/2017 8:11,15,8,BNYB333,Where I Park-1941 Yonge St(surface lot),10/15/2017 9:07,15,9,43.698950000000004,-79.396529999999998,10/15/2017 10:12,15,10
200,0,201,43.698950000000004,-79.396529999999998,43.704920000000001,-79.391800000000003,1059.384173100000000,201,BNYB333,Where I Park-1941 Yonge St(surface lot),10/15/2017 9:07,15,9,43.698950000000004,-79.396529999999998,10/15/2017 10:12,15,10,BNYB333,"42 Redpath Ave, Toronto, ON M4S 2J6",10/15/2017 10:22,15,10,43.704920000000001,-79.391800000000003,10/15/2017 10:42,15,10
201,0,202,43.704920000000001,-79.391800000000003,43.704490000000000,-79.392290000000003,85.788858605300007,202,BNYB333,"42 Redpath Ave, Toronto, ON M4S 2J6",10/15/2017 10:22,15,10,43.704920000000001,-79.391800000000003,10/15/2017 10:42,15,10,BNYB333,"189 Hillsdale Ave E, Toronto, ON M4S 1T4",10/15/2017 12:28,15,12,43.704490000000000,-79.392290000000003,10/15/2017 12:49,15,12
202,0,203,43.704490000000000,-79.392290000000003,43.699979999999996,-79.388310000000004,823.750732187000040,203,BNYB333,"189 Hillsdale Ave E, Toronto, ON M4S 1T4",10/15/2017 12:28,15,12,43.704490000000000,-79.392290000000003,10/15/2017 12:49,15,12,BNYB333,"225 Davisville Ave, Toronto, ON M4S 1G9",10/15/2017 13:29,15,13,43.699979999999996,-79.388310000000004,10/15/2017 15:25,15,15
203,0,204,43.699979999999996,-79.388310000000004,43.690489999999997,-79.392910000000001,1548.248009830000000,204,BNYB333,"225 Davisville Ave, Toronto, ON M4S 1G9",10/15/2017 13:29,15,13,43.699979999999996,-79.388310000000004,10/15/2017 15:25,15,15,BNYB333,"47 Alvin Ave, Toronto, ON M4T 2A8",10/15/2017 15:55,15,15,43.690489999999997,-79.392910000000001,10/15/2017 18:30,15,18
204,0,205,43.676360000000003,-79.447299999999998,43.668280000000003,-79.481750000000005,4031.539455839999800,205,BNYB339,"141 Greenlaw Ave, Toronto, ON M6H 3V5",10/15/2017 9:37,15,9,43.676360000000003,-79.447299999999998,10/15/2017 15:09,15,15,BNYB339,"324 Ryding Ave, Toronto, ON M6N 1H5",10/15/2017 16:20,15,16,43.668280000000003,-79.481750000000005,10/15/2017 17:34,15,17
205,0,206,43.668280000000003,-79.481750000000005,43.668259999999997,-79.481800000000007,6.360304435080000,206,BNYB339,"324 Ryding Ave, Toronto, ON M6N 1H5",10/15/2017 16:20,15,16,43.668280000000003,-79.481750000000005,10/15/2017 17:34,15,17,BNYB339,"328 Ryding Ave, Toronto, ON M6N 1H5",10/15/2017 18:05,15,18,43.668259999999997,-79.481800000000007,10/15/2017 18:30,15,18
206,0,207,43.663130000000002,-79.416899999999998,43.659199999999998,-79.390349999999998,3016.765656170000100,207,BNYB344,"349 Clinton St, Toronto, ON M6G 2Y7",10/15/2017 0:01,15,0,43.663130000000002,-79.416899999999998,10/15/2017 1:22,15,1,BNYB344,"700 University Ave, Toronto, ON M5G",10/15/2017 1:47,15,1,43.659199999999998,-79.390349999999998,10/15/2017 2:22,15,2
207,0,208,43.659199999999998,-79.390349999999998,43.655340000000002,-79.409899999999993,2255.883392300000200,208,BNYB344,"700 University Ave, Toronto, ON M5G",10/15/2017 1:47,15,1,43.659199999999998,-79.390349999999998,10/15/2017 2:22,15,2,BNYB344,"296 Palmerston Ave, Toronto, ON M6J 2J4",10/15/2017 2:37,15,2,43.655340000000002,-79.409899999999993,10/15/2017 9:07,15,9
208,0,209,43.655340000000002,-79.409899999999993,43.669939999999997,-79.337029999999999,8417.218302850000300,209,BNYB344,"296 Palmerston Ave, Toronto, ON M6J 2J4",10/15/2017 2:37,15,2,43.655340000000002,-79.409899999999993,10/15/2017 9:07,15,9,BNYB344,"112 Galt Ave, Toronto, ON M4M 2Z3",10/15/2017 10:07,15,10,43.669939999999997,-79.337029999999999,10/15/2017 15:14,15,15
209,0,210,43.669939999999997,-79.337029999999999,43.660310000000003,-79.335660000000004,1489.752610159999900,210,BNYB344,"112 Galt Ave, Toronto, ON M4M 2Z3",10/15/2017 10:07,15,10,43.669939999999997,-79.337029999999999,10/15/2017 15:14,15,15,BNYB344,"42 Winnifred Ave, Toronto, ON M4M 2X3",10/15/2017 16:05,15,16,43.660310000000003,-79.335660000000004,10/15/2017 16:30,15,16
210,0,211,43.660310000000003,-79.335660000000004,43.647030000000001,-79.373300000000000,4661.695363079999900,211,BNYB344,"42 Winnifred Ave, Toronto, ON M4M 2X3",10/15/2017 16:05,15,16,43.660310000000003,-79.335660000000004,10/15/2017 16:30,15,16,BNYB344,Unit Park-73 The Esplanade(surface lot),10/15/2017 16:52,15,16,43.647030000000001,-79.373300000000000,10/15/2017 17:54,15,17
211,0,212,43.647030000000001,-79.373300000000000,43.638590000000001,-79.385480000000001,1877.236868600000000,212,BNYB344,Unit Park-73 The Esplanade(surface lot),10/15/2017 16:52,15,16,43.647030000000001,-79.373300000000000,10/15/2017 17:54,15,17,BNYB344,TargetPark-249 Queens Quay W(Radisson Garage),10/15/2017 18:20,15,18,43.638590000000001,-79.385480000000001,10/15/2017 18:30,15,18
212,0,213,43.694139999999997,-79.454759999999993,43.636910000000000,-79.409719999999993,10134.167047299999000,213,BNYB354,"114 Branstone Rd, York, ON M6E 4E5",10/15/2017 0:01,15,0,43.694139999999997,-79.454759999999993,10/15/2017 7:11,15,7,BNYB354,Green P-800 Fleet St(No Double Parking),10/15/2017 7:31,15,7,43.636910000000000,-79.409719999999993,10/15/2017 9:17,15,9
213,0,214,43.636910000000000,-79.409719999999993,43.640039999999999,-79.414060000000006,682.060162838000000,214,BNYB354,Green P-800 Fleet St(No Double Parking),10/15/2017 7:31,15,7,43.636910000000000,-79.409719999999993,10/15/2017 9:17,15,9,BNYB354,"939 Western Battery Rd, Toronto, ON M6K 3P1",10/15/2017 9:42,15,9,43.640039999999999,-79.414060000000006,10/15/2017 11:53,15,11
214,0,215,43.640039999999999,-79.414060000000006,43.656199999999998,-79.342020000000005,8395.973617199999400,215,BNYB354,"939 Western Battery Rd, Toronto, ON M6K 3P1",10/15/2017 9:42,15,9,43.640039999999999,-79.414060000000006,10/15/2017 11:53,15,11,BNYB354,"54-94 Booth Ave, Toronto, ON M4M",10/15/2017 12:49,15,12,43.656199999999998,-79.342020000000005,10/15/2017 18:30,15,18
215,0,216,43.653900000000000,-79.463960000000000,43.655200000000001,-79.437280000000001,2976.731553109999800,216,BNYB368,"1858 Bloor St W, Toronto, ON M6P 3K7",10/15/2017 0:01,15,0,43.653900000000000,-79.463960000000000,10/15/2017 2:22,15,2,BNYB368,"18 Cobourg Ave, Toronto, ON M6H 1H9",10/15/2017 2:42,15,2,43.655200000000001,-79.437280000000001,10/15/2017 10:07,15,10
216,0,217,43.655200000000001,-79.437280000000001,43.666269999999997,-79.473529999999997,4380.121527610000200,217,BNYB368,"18 Cobourg Ave, Toronto, ON M6H 1H9",10/15/2017 2:42,15,2,43.655200000000001,-79.437280000000001,10/15/2017 10:07,15,10,BNYB368,"547 Clendenan Ave, Toronto, ON M6P 2X8",10/15/2017 10:37,15,10,43.666269999999997,-79.473529999999997,10/15/2017 16:00,15,16
217,0,218,43.666269999999997,-79.473529999999997,43.658670000000001,-79.409880000000001,7181.351067059999900,218,BNYB368,"547 Clendenan Ave, Toronto, ON M6P 2X8",10/15/2017 10:37,15,10,43.666269999999997,-79.473529999999997,10/15/2017 16:00,15,16,BNYB368,"375 Markham St, Toronto, ON M6G 2K8",10/15/2017 16:35,15,16,43.658670000000001,-79.409880000000001,10/15/2017 16:46,15,16
218,0,219,43.658670000000001,-79.409880000000001,43.642350000000000,-79.424180000000007,2972.917047190000200,219,BNYB368,"375 Markham St, Toronto, ON M6G 2K8",10/15/2017 16:35,15,16,43.658670000000001,-79.409880000000001,10/15/2017 16:46,15,16,BNYB368,"68 Abell St, Toronto, ON M6J 0B1",10/15/2017 18:15,15,18,43.642350000000000,-79.424180000000007,10/15/2017 18:20,15,18
219,0,220,43.684629999999999,-79.363439999999997,43.699570000000001,-79.379400000000004,2906.365573000000000,220,BNYB370,Evergreen Brickworks (Northeast parking lot),10/15/2017 0:01,15,0,43.684629999999999,-79.363439999999997,10/15/2017 9:12,15,9,BNYB370,"579 Merton St, Toronto, ON M4S 1B4",10/15/2017 9:52,15,9,43.699570000000001,-79.379400000000004,10/15/2017 13:24,15,13
220,0,221,43.699570000000001,-79.379400000000004,43.699480000000001,-79.379959999999997,63.860603276399999,221,BNYB370,"579 Merton St, Toronto, ON M4S 1B4",10/15/2017 9:52,15,9,43.699570000000001,-79.379400000000004,10/15/2017 13:24,15,13,BNYB370,"555 Merton St, Toronto, ON M4S 1B4",10/15/2017 17:14,15,17,43.699480000000001,-79.379959999999997,10/15/2017 18:30,15,18
221,0,222,43.652500000000003,-79.399879999999996,43.654179999999997,-79.403180000000006,449.177325590000010,222,BNYB372,"547-549 Dundas St W, Toronto, ON M5T 1H4",10/15/2017 0:01,15,0,43.652500000000003,-79.399879999999996,10/15/2017 8:52,15,8,BNYB372,Green P-35 Bellevue Ave(no double parking),10/15/2017 9:02,15,9,43.654179999999997,-79.403180000000006,10/15/2017 10:07,15,10
222,0,223,43.654179999999997,-79.403180000000006,43.668329999999997,-79.395629999999997,2333.931902350000200,223,BNYB372,Green P-35 Bellevue Ave(no double parking),10/15/2017 9:02,15,9,43.654179999999997,-79.403180000000006,10/15/2017 10:07,15,10,BNYB372,"235 Bloor St W, Toronto, ON M5S 1W2",10/15/2017 12:23,15,12,43.668329999999997,-79.395629999999997,10/15/2017 14:34,15,14
223,0,224,43.668329999999997,-79.395629999999997,43.658220000000000,-79.447550000000007,5985.429199600000200,224,BNYB372,"235 Bloor St W, Toronto, ON M5S 1W2",10/15/2017 12:23,15,12,43.668329999999997,-79.395629999999997,10/15/2017 14:34,15,14,BNYB372,"13 Rankin Crescent, Toronto, ON M6P 4H1",10/15/2017 15:19,15,15,43.658220000000000,-79.447550000000007,10/15/2017 15:55,15,15
224,0,225,43.658220000000000,-79.447550000000007,43.670369999999998,-79.470950000000002,3206.420741150000100,225,BNYB372,"13 Rankin Crescent, Toronto, ON M6P 4H1",10/15/2017 15:19,15,15,43.658220000000000,-79.447550000000007,10/15/2017 15:55,15,15,BNYB372,"10 Old Stock Yards Rd, Toronto, ON M6N 5G8",10/15/2017 16:40,15,16,43.670369999999998,-79.470950000000002,10/15/2017 17:02,15,17
225,0,226,43.670369999999998,-79.470950000000002,43.662179999999999,-79.450999999999993,2553.536719719999800,226,BNYB372,"10 Old Stock Yards Rd, Toronto, ON M6N 5G8",10/15/2017 16:40,15,16,43.670369999999998,-79.470950000000002,10/15/2017 17:02,15,17,BNYB372,"279 Perth Ave, Toronto, ON M6P 3X9",10/15/2017 17:29,15,17,43.662179999999999,-79.450999999999993,10/15/2017 17:39,15,17
226,0,227,43.662179999999999,-79.450999999999993,43.656210000000002,-79.466359999999995,1941.002975449999900,227,BNYB372,"279 Perth Ave, Toronto, ON M6P 3X9",10/15/2017 17:29,15,17,43.662179999999999,-79.450999999999993,10/15/2017 17:39,15,17,BNYB372,"65-77 High Park Ave, Toronto, ON M6P",10/15/2017 18:15,15,18,43.656210000000002,-79.466359999999995,10/15/2017 18:30,15,18
227,0,228,43.661070000000002,-79.430000000000007,43.638939999999998,-79.440870000000004,3613.285683440000000,228,BNYB375,"990 Bloor St W, Toronto, ON M6H 1L8",10/15/2017 0:01,15,0,43.661070000000002,-79.430000000000007,10/15/2017 1:22,15,1,BNYB375,"78 Beaty Ave, Toronto, ON M6K 3B4",10/15/2017 1:42,15,1,43.638939999999998,-79.440870000000004,10/15/2017 11:37,15,11
228,0,229,43.638939999999998,-79.440870000000004,43.652110000000000,-79.402919999999995,4685.274566780000000,229,BNYB375,"78 Beaty Ave, Toronto, ON M6K 3B4",10/15/2017 1:42,15,1,43.638939999999998,-79.440870000000004,10/15/2017 11:37,15,11,BNYB375,"2 Hickory St, Toronto, ON M5T 2P1",10/15/2017 11:58,15,11,43.652110000000000,-79.402919999999995,10/15/2017 12:44,15,12
229,0,230,43.652110000000000,-79.402919999999995,43.652130000000000,-79.402799999999999,13.708155341399999,230,BNYB375,"2 Hickory St, Toronto, ON M5T 2P1",10/15/2017 11:58,15,11,43.652110000000000,-79.402919999999995,10/15/2017 12:44,15,12,BNYB375,"Hickory St, Toronto, ON M5T",10/15/2017 12:59,15,12,43.652130000000000,-79.402799999999999,10/15/2017 14:54,15,14
230,0,231,43.652130000000000,-79.402799999999999,43.670549999999999,-79.469840000000005,7982.990302080000200,231,BNYB375,"Hickory St, Toronto, ON M5T",10/15/2017 12:59,15,12,43.652130000000000,-79.402799999999999,10/15/2017 14:54,15,14,BNYB375,"10 Old Stock Yards Rd, Toronto, ON M6N",10/15/2017 15:45,15,15,43.670549999999999,-79.469840000000005,10/15/2017 17:49,15,17
231,0,232,43.655949999999997,-79.327939999999998,43.666300000000000,-79.380189999999999,6030.542827610000100,232,BPNM925,"600-640 Commissioners St, Toronto, ON M4M 1N7",10/15/2017 0:01,15,0,43.655949999999997,-79.327939999999998,10/15/2017 6:50,15,6,BPNM925,Starlight-80 Wellesley St E (behind building),10/15/2017 7:26,15,7,43.666300000000000,-79.380189999999999,10/15/2017 10:42,15,10
232,0,233,43.666300000000000,-79.380189999999999,43.690460000000002,-79.620549999999994,27013.944254700000000,233,BPNM925,Starlight-80 Wellesley St E (behind building),10/15/2017 7:26,15,7,43.666300000000000,-79.380189999999999,10/15/2017 10:42,15,10,BPNM925,Four Points by Sheraton-American Drive ($7.50 fee),10/15/2017 11:53,15,11,43.690460000000002,-79.620549999999994,10/15/2017 12:44,15,12
233,0,234,43.690460000000002,-79.620549999999994,43.686839999999997,-79.338920000000002,31355.876048900001000,234,BPNM925,Four Points by Sheraton-American Drive ($7.50 fee),10/15/2017 11:53,15,11,43.690460000000002,-79.620549999999994,10/15/2017 12:44,15,12,BPNM925,"82 Marlow Ave, East York, ON M4J 3V1",10/15/2017 13:49,15,13,43.686839999999997,-79.338920000000002,10/15/2017 18:05,15,18
234,0,235,43.654179999999997,-79.403180000000006,43.644669999999998,-79.425409999999999,2874.786769209999900,235,BPNM927,Green P-35 Bellevue Ave(no double parking),10/15/2017 0:01,15,0,43.654179999999997,-79.403180000000006,10/15/2017 0:57,15,0,BPNM927,"47 Beaconsfield Ave, Toronto, ON M6J 3J1",10/15/2017 1:27,15,1,43.644669999999998,-79.425409999999999,10/15/2017 8:06,15,8
235,0,236,43.644669999999998,-79.425409999999999,43.647109999999998,-79.423609999999996,425.496406933000000,236,BPNM927,"47 Beaconsfield Ave, Toronto, ON M6J 3J1",10/15/2017 1:27,15,1,43.644669999999998,-79.425409999999999,10/15/2017 8:06,15,8,BPNM927,"66-76 Foxley St, Toronto, ON M6J",10/15/2017 9:37,15,9,43.647109999999998,-79.423609999999996,10/15/2017 10:47,15,10
236,0,237,43.638370000000002,-79.397720000000007,43.637990000000002,-79.395169999999993,289.820014555000000,237,BPNM928,"56 Dan Leckie Way, Toronto, ON M5V 2V6",10/15/2017 0:01,15,0,43.638370000000002,-79.397720000000007,10/15/2017 1:32,15,1,BPNM928,"433-441 Lake Shore Blvd W, Toronto, ON M5V",10/15/2017 1:37,15,1,43.637990000000002,-79.395169999999993,10/15/2017 5:19,15,5
237,0,238,43.637990000000002,-79.395169999999993,43.638559999999998,-79.397959999999998,322.719506126000000,238,BPNM928,"433-441 Lake Shore Blvd W, Toronto, ON M5V",10/15/2017 1:37,15,1,43.637990000000002,-79.395169999999993,10/15/2017 5:19,15,5,BPNM928,"75 Housey St, Toronto, ON M5V 3Y2",10/15/2017 5:25,15,5,43.638559999999998,-79.397959999999998,10/15/2017 6:50,15,6
238,0,239,43.638559999999998,-79.397959999999998,43.636130000000001,-79.395200000000003,483.841157538000000,239,BPNM928,"75 Housey St, Toronto, ON M5V 3Y2",10/15/2017 5:25,15,5,43.638559999999998,-79.397959999999998,10/15/2017 6:50,15,6,BPNM928,"Waterfront Trail, Toronto, ON M5V",10/15/2017 6:55,15,6,43.636130000000001,-79.395200000000003,10/15/2017 7:36,15,7
239,0,240,43.636130000000001,-79.395200000000003,43.638230000000000,-79.397430000000000,407.382465383000010,240,BPNM928,"Waterfront Trail, Toronto, ON M5V",10/15/2017 6:55,15,6,43.636130000000001,-79.395200000000003,10/15/2017 7:36,15,7,BPNM928,"113 Dan Leckie Way, Toronto, ON M5V 2V6",10/15/2017 7:41,15,7,43.638230000000000,-79.397430000000000,10/15/2017 12:08,15,12
240,0,241,43.638230000000000,-79.397430000000000,43.636400000000002,-79.396640000000005,294.899673665000020,241,BPNM928,"113 Dan Leckie Way, Toronto, ON M5V 2V6",10/15/2017 7:41,15,7,43.638230000000000,-79.397430000000000,10/15/2017 12:08,15,12,BPNM928,"509 Waterfront Trail, Toronto, ON M5V 3G3",10/15/2017 10:02,15,10,43.636400000000002,-79.396640000000005,10/15/2017 10:42,15,10
241,0,242,43.636400000000002,-79.396640000000005,43.650109999999998,-79.368750000000006,3753.279417900000200,242,BPNM928,"509 Waterfront Trail, Toronto, ON M5V 3G3",10/15/2017 10:02,15,10,43.636400000000002,-79.396640000000005,10/15/2017 10:42,15,10,BPNM928,"167-171 Front St E, Toronto, ON M5A 3Z4",10/15/2017 12:44,15,12,43.650109999999998,-79.368750000000006,10/15/2017 12:59,15,12
242,0,243,43.650109999999998,-79.368750000000006,43.638260000000002,-79.397700000000000,3702.542393170000200,243,BPNM928,"167-171 Front St E, Toronto, ON M5A 3Z4",10/15/2017 12:44,15,12,43.650109999999998,-79.368750000000006,10/15/2017 12:59,15,12,BPNM928,"75 Queens Wharf Rd, Toronto, ON M5V 0J8",10/15/2017 13:34,15,13,43.638260000000002,-79.397700000000000,10/15/2017 15:19,15,15
243,0,244,43.664000000000001,-79.409790000000001,43.671289999999999,-79.389330000000001,2538.909058010000100,244,BPNM930,"206 Lennox St, Toronto, ON M5S 2R5",10/15/2017 0:01,15,0,43.664000000000001,-79.409790000000001,10/15/2017 11:02,15,11,BPNM930,Green P-37 Yorkville Ave (garage),10/15/2017 12:08,15,12,43.671289999999999,-79.389330000000001,10/15/2017 15:40,15,15
244,0,245,43.671289999999999,-79.389330000000001,43.684600000000003,-79.350669999999994,4766.351016440000400,245,BPNM930,Green P-37 Yorkville Ave (garage),10/15/2017 12:08,15,12,43.671289999999999,-79.389330000000001,10/15/2017 15:40,15,15,BPNM930,"13 Dilworth Crescent, East York, ON M4K 1Z5",10/15/2017 16:05,15,16,43.684600000000003,-79.350669999999994,10/15/2017 18:30,15,18
245,0,246,43.679099999999998,-79.288910000000001,43.671439999999997,-79.330340000000007,4760.273442720000300,246,BPNM932,"302 Willow Ave, Toronto, ON M4E 3K7",10/15/2017 0:01,15,0,43.679099999999998,-79.288910000000001,10/15/2017 16:30,15,16,BPNM932,"14-16 Sandford Ave, Toronto, ON M4L 2E7",10/15/2017 17:02,15,17,43.671439999999997,-79.330340000000007,10/15/2017 17:09,15,17
246,0,247,43.671439999999997,-79.330340000000007,43.671390000000002,-79.330309999999997,8.388550607719999,247,BPNM932,"14-16 Sandford Ave, Toronto, ON M4L 2E7",10/15/2017 17:02,15,17,43.671439999999997,-79.330340000000007,10/15/2017 17:09,15,17,BPNM932,"7 Sandford Ave, Toronto, ON M4L 2E6",10/15/2017 17:14,15,17,43.671390000000002,-79.330309999999997,10/15/2017 18:30,15,18
247,0,248,43.664619999999999,-79.446759999999998,43.682420000000000,-79.326369999999997,13678.896984000001000,248,BPNM937,"281 Lappin Ave, Toronto, ON M6H 1Y9",10/15/2017 0:01,15,0,43.664619999999999,-79.446759999999998,10/15/2017 9:37,15,9,BPNM937,"1439 Danforth Ave, Toronto, ON M4J 1N3",10/15/2017 10:32,15,10,43.682420000000000,-79.326369999999997,10/15/2017 16:57,15,16
248,0,249,43.682420000000000,-79.326369999999997,43.684190000000001,-79.319469999999995,814.996766439999990,249,BPNM937,"1439 Danforth Ave, Toronto, ON M4J 1N3",10/15/2017 10:32,15,10,43.682420000000000,-79.326369999999997,10/15/2017 16:57,15,16,BPNM937,"1775A Danforth Ave, Toronto, ON M4C 1J1",10/15/2017 17:02,15,17,43.684190000000001,-79.319469999999995,10/15/2017 18:30,15,18
249,0,250,43.684629999999999,-79.363439999999997,43.677320000000002,-79.357470000000006,1306.810211519999900,250,BPNM938,Evergreen Brickworks (Northeast parking lot),10/15/2017 0:01,15,0,43.684629999999999,-79.363439999999997,10/15/2017 10:22,15,10,BPNM938,Green P-35 Erindale Ave(no double parking),10/15/2017 10:37,15,10,43.677320000000002,-79.357470000000006,10/15/2017 18:30,15,18
250,0,251,43.677320000000002,-79.357470000000006,43.682229999999997,-79.356020000000001,772.811356142000020,251,BPNM938,Green P-35 Erindale Ave(no double parking),10/15/2017 10:37,15,10,43.677320000000002,-79.357470000000006,10/15/2017 18:30,15,18,BPNM938,"30 Fulton Ave, Toronto, ON M4K 1X5",10/15/2017 12:03,15,12,43.682229999999997,-79.356020000000001,10/15/2017 12:33,15,12
251,0,252,43.682229999999997,-79.356020000000001,43.694609999999997,-79.397729999999996,5019.062489439999800,252,BPNM938,"30 Fulton Ave, Toronto, ON M4K 1X5",10/15/2017 12:03,15,12,43.682229999999997,-79.356020000000001,10/15/2017 12:33,15,12,BPNM938,"8 Gormley Ave, Toronto, ON M4V 1Y8",10/15/2017 13:14,15,13,43.694609999999997,-79.397729999999996,10/15/2017 15:25,15,15
252,0,253,43.704990000000002,-79.391750000000002,43.656480000000002,-79.356909999999999,8414.120172139999300,253,BPNM939,"55 Redpath Ave, Toronto, ON M4S",10/15/2017 0:01,15,0,43.704990000000002,-79.391750000000002,10/15/2017 7:21,15,7,BPNM939,"514 King St E, Toronto, ON M5A 1M1",10/15/2017 7:51,15,7,43.656480000000002,-79.356909999999999,10/15/2017 11:27,15,11
253,0,254,43.656480000000002,-79.356909999999999,43.670659999999998,-79.337950000000006,3035.796277160000000,254,BPNM939,"514 King St E, Toronto, ON M5A 1M1",10/15/2017 7:51,15,7,43.656480000000002,-79.356909999999999,10/15/2017 11:27,15,11,BPNM939,"146 Galt Ave, Toronto, ON M4M 2Z3",10/15/2017 11:58,15,11,43.670659999999998,-79.337950000000006,10/15/2017 12:54,15,12
254,0,255,43.670659999999998,-79.337950000000006,43.656210000000002,-79.358699999999999,3206.231518300000100,255,BPNM939,"146 Galt Ave, Toronto, ON M4M 2Z3",10/15/2017 11:58,15,11,43.670659999999998,-79.337950000000006,10/15/2017 12:54,15,12,BPNM939,"52-58 Sumach St, Toronto, ON M5A 3J7",10/15/2017 14:09,15,14,43.656210000000002,-79.358699999999999,10/15/2017 14:29,15,14
255,0,256,43.656210000000002,-79.358699999999999,43.656570000000002,-79.358890000000002,59.291814948599999,256,BPNM939,"52-58 Sumach St, Toronto, ON M5A 3J7",10/15/2017 14:09,15,14,43.656210000000002,-79.358699999999999,10/15/2017 14:29,15,14,BPNM939,"60-68 Sumach St, Toronto, ON M5A 3J7",10/15/2017 15:25,15,15,43.656570000000002,-79.358890000000002,10/15/2017 15:25,15,15
256,0,257,43.656570000000002,-79.358890000000002,43.667610000000003,-79.325190000000006,4118.190411120000100,257,BPNM939,"60-68 Sumach St, Toronto, ON M5A 3J7",10/15/2017 15:25,15,15,43.656570000000002,-79.358890000000002,10/15/2017 15:25,15,15,BPNM939,"1705 Dundas St E, Toronto, ON M4L 1L7",10/15/2017 16:00,15,16,43.667610000000003,-79.325190000000006,10/15/2017 16:15,15,16
257,0,258,43.667610000000003,-79.325190000000006,43.653649999999999,-79.359399999999994,4372.298508290000400,258,BPNM939,"1705 Dundas St E, Toronto, ON M4L 1L7",10/15/2017 16:00,15,16,43.667610000000003,-79.325190000000006,10/15/2017 16:15,15,16,BPNM939,"19 Sackville St, Toronto, ON M5A",10/15/2017 16:46,15,16,43.653649999999999,-79.359399999999994,10/15/2017 17:54,15,17
258,0,259,43.653649999999999,-79.359399999999994,43.662160000000000,-79.478399999999993,13311.578518599999000,259,BPNM939,"19 Sackville St, Toronto, ON M5A",10/15/2017 16:46,15,16,43.653649999999999,-79.359399999999994,10/15/2017 17:54,15,17,BPNM939,"150-154 Gilmour Ave, Toronto, ON M6P 3B3",10/15/2017 18:30,15,18,43.662160000000000,-79.478399999999993,10/15/2017 18:30,15,18
259,0,260,43.642719999999997,-79.426240000000007,43.640659999999997,-79.394610000000000,3535.265966389999900,260,BPNM941,"1188 Queen St W, Toronto, ON M6J 1J6",10/15/2017 0:01,15,0,43.642719999999997,-79.426240000000007,10/15/2017 0:47,15,0,BPNM941,"Impark-22 Fort York(garage under sobeys, 5 spaces)",10/15/2017 1:02,15,1,43.640659999999997,-79.394610000000000,10/15/2017 15:35,15,15
260,0,261,43.640659999999997,-79.394610000000000,43.659120000000001,-79.376559999999998,3478.947945400000200,261,BPNM941,"Impark-22 Fort York(garage under sobeys, 5 spaces)",10/15/2017 1:02,15,1,43.640659999999997,-79.394610000000000,10/15/2017 15:35,15,15,BPNM941,"161 Mutual St, Toronto, ON M5B",10/15/2017 16:05,15,16,43.659120000000001,-79.376559999999998,10/15/2017 16:05,15,16
261,0,262,43.659120000000001,-79.376559999999998,43.637779999999999,-79.424009999999996,6219.238650139999700,262,BPNM941,"161 Mutual St, Toronto, ON M5B",10/15/2017 16:05,15,16,43.659120000000001,-79.376559999999998,10/15/2017 16:05,15,16,BPNM941,GreenP-1155 King st W(no double parking),10/15/2017 17:02,15,17,43.637779999999999,-79.424009999999996,10/15/2017 18:30,15,18
262,0,263,43.685330000000000,-79.429289999999995,43.646599999999999,-79.394769999999994,7091.512540589999800,263,BPNM946,"477 Rushton Rd, York, ON M6C 2Y4",10/15/2017 0:01,15,0,43.685330000000000,-79.429289999999995,10/15/2017 11:32,15,11,BPNM946,Green P-363 Adelaide St W(no double parking),10/15/2017 12:23,15,12,43.646599999999999,-79.394769999999994,10/15/2017 12:44,15,12
263,0,264,43.646599999999999,-79.394769999999994,43.663220000000003,-79.430109999999999,4692.083594720000300,264,BPNM946,Green P-363 Adelaide St W(no double parking),10/15/2017 12:23,15,12,43.646599999999999,-79.394769999999994,10/15/2017 12:44,15,12,BPNM946,"810-812 Dovercourt Rd, Toronto, ON M6H 2X3",10/15/2017 14:24,15,14,43.663220000000003,-79.430109999999999,10/15/2017 16:52,15,16
264,0,265,43.663220000000003,-79.430109999999999,43.656430000000000,-79.451650000000001,2615.558994139999900,265,BPNM946,"810-812 Dovercourt Rd, Toronto, ON M6H 2X3",10/15/2017 14:24,15,14,43.663220000000003,-79.430109999999999,10/15/2017 16:52,15,16,BPNM946,"1447-1499 Bloor St W, Toronto, ON M6P 1A3",10/15/2017 17:44,15,17,43.656430000000000,-79.451650000000001,10/15/2017 18:05,15,18
