,VIN,Address,Date,Lat,Long,t2,VIN1,Address1,Hour,Day,Duration,Availiable,Distance
4,BNYB045,"23 Murdock Ave, Toronto, ON M4C 1E3",17/10/2017 7:29,43.68308,-79.31589,17/10/2017 8:40,BNYB045,"8-10 Ellis Gardens, Toronto, ON M6S 1A7",7,17,4427,4211,13.19606766
5,BNYB045,"8-10 Ellis Gardens, Toronto, ON M6S 1A7",17/10/2017 9:53,43.63852,-79.46793,17/10/2017 14:07,BNYB045,"45 Ripley Ave, Toronto, ON M6S 3P2",9,17,11179,15207,0.608389406
6,BNYB045,"45 Ripley Ave, Toronto, ON M6S 3P2",17/10/2017 17:13,43.63856,-79.47549,18/10/2017 9:18,BNYB045,"65-67 Priscilla Ave, York, ON M6S 3W4",17,17,1203,57910,2.853689918
7,BNYB045,"65-67 Priscilla Ave, York, ON M6S 3W4",18/10/2017 9:38,43.6625,-79.48827,18/10/2017 19:52,BNYB045,"862 Windermere Ave, York, ON M6S 3M7",9,18,3609,36816,0.279914455
8,BNYB045,"862 Windermere Ave, York, ON M6S 3M7",18/10/2017 20:52,43.66332,-79.48498,19/10/2017 14:55,BNYB045,"75-81 Lightbourn Ave, Toronto, ON M6H 2E5",20,18,1224,64975,3.472537542
9,BNYB045,"75-81 Lightbourn Ave, Toronto, ON M6H 2E5",19/10/2017 15:16,43.67099,-79.44313,20/10/2017 0:39,BNYB045,"12 Strickland Ave, Toronto, ON M6K",15,19,1503,33794,3.242913629
10,BNYB045,"12 Strickland Ave, Toronto, ON M6K",20/10/2017 1:04,43.64313,-79.43121,20/10/2017 8:53,BNYB045,Green P-25 Dundas St E(no double parking),1,20,1806,28132,4.367020521
11,BNYB045,Green P-25 Dundas St E(no double parking),20/10/2017 9:23,43.656,-79.37993,20/10/2017 11:53,BNYB045,"9 Whitaker Ave, Toronto, ON M6J 1A2",9,20,1225,9025,2.51274078
12,BNYB045,"9 Whitaker Ave, Toronto, ON M6J 1A2",20/10/2017 12:14,43.64387,-79.40628,20/10/2017 13:04,BNYB045,Green P-35 Bellevue Ave(no double parking),12,20,3351,3008,1.173238795
13,BNYB045,Green P-35 Bellevue Ave(no double parking),20/10/2017 14:00,43.65418,-79.40318,20/10/2017 15:21,BNYB045,"26-32 High Park Ave, Toronto, ON M6P",14,20,2131,4864,5.043850999
14,BNYB045,"26-32 High Park Ave, Toronto, ON M6P",20/10/2017 15:56,43.65472,-79.46587,20/10/2017 19:44,BNYB045,"2-8 Howard Park Ave, Toronto, ON M6R 1V5",15,20,2433,13673,1.363477781
16,BNYB045,"314-320 Roncesvalles Ave, Toronto, ON M6R",20/10/2017 22:41,43.64996,-79.4505,21/10/2017 7:48,BNYB045,"2 Howard Park Ave, Toronto, ON M6R 1V5",22,20,2406,32845,0.23903969
17,BNYB045,"2 Howard Park Ave, Toronto, ON M6R 1V5",21/10/2017 8:28,43.6519,-79.44922,21/10/2017 8:53,BNYB045,"24 Howard Park Ave, Toronto, ON M6R 1V5",8,21,13907,1505,0.027377201
18,BNYB045,"24 Howard Park Ave, Toronto, ON M6R 1V5",21/10/2017 12:45,43.65191,-79.44956,21/10/2017 13:45,BNYB045,"24 Silver Ave, Toronto, ON M6R 1X8",12,21,1805,3610,0.186504437
19,BNYB045,"24 Silver Ave, Toronto, ON M6R 1X8",21/10/2017 14:15,43.65301,-79.44781,21/10/2017 15:25,BNYB045,"38 Rolyat St, Toronto, ON M6J 1S6",14,21,902,4212,2.088330786
20,BNYB045,"38 Rolyat St, Toronto, ON M6J 1S6",21/10/2017 15:41,43.64851,-79.42261,21/10/2017 16:06,BNYB045,"26 St Joseph St, Toronto, ON M4Y 1K1",15,21,1805,1504,3.472152273
22,BNYB045,Green P-37 Yorkville Ave (garage),22/10/2017 3:06,43.67129,-79.38933,22/10/2017 6:22,BNYB045,"90 Mulock Ave, Toronto, ON M6N 3C6",3,22,1831,11811,6.116590625
23,BNYB045,"90 Mulock Ave, Toronto, ON M6N 3C6",22/10/2017 6:53,43.67006,-79.46536,22/10/2017 9:41,BNYB045,"570 Caledonia Rd, York, ON M6E 4V4",6,22,13242,10073,2.498870169
24,BNYB045,"570 Caledonia Rd, York, ON M6E 4V4",22/10/2017 13:22,43.69243,-79.46239,23/10/2017 6:44,BNYB045,"352 Ryding Ave, Toronto, ON M6N 1H5",13,22,4882,62528,3.118256141
25,BNYB045,"352 Ryding Ave, Toronto, ON M6N 1H5",23/10/2017 8:05,43.66825,-79.48203,23/10/2017 8:30,BNYB045,"250 Markham St, Toronto, ON M6J 2G6",8,23,2749,1517,6.111572035
26,BNYB045,"250 Markham St, Toronto, ON M6J 2G6",23/10/2017 9:16,43.6547,-79.4084,23/10/2017 13:20,BNYB045,"32 Queen St E, Toronto, ON M5B 1W8",9,23,2425,14630,2.513838562
27,BNYB045,"32 Queen St E, Toronto, ON M5B 1W8",23/10/2017 14:00,43.65302,-79.37724,23/10/2017 14:36,BNYB045,"284 Markham St, Toronto, ON M6J 2G6",14,23,1828,2152,2.544472453
28,BNYB045,"284 Markham St, Toronto, ON M6J 2G6",23/10/2017 15:07,43.65544,-79.40869,23/10/2017 17:14,BNYB045,"38 Hanna Ave, Toronto, ON M6K 3N7",15,23,1211,7663,2.042313723
29,BNYB045,"38 Hanna Ave, Toronto, ON M6K 3N7",23/10/2017 17:35,43.63894,-79.41984,23/10/2017 18:10,BNYB045,"Impark-22 Fort York(garage under sobeys, 5 spaces)",17,23,1542,2125,2.03927044
30,BNYB045,"Impark-22 Fort York(garage under sobeys, 5 spaces)",23/10/2017 18:36,43.64066,-79.39461,24/10/2017 5:26,BNYB045,GreenP-1155 King st W(no double parking),18,23,903,39040,2.387444167
31,BNYB045,GreenP-1155 King st W(no double parking),24/10/2017 5:41,43.63778,-79.42401,24/10/2017 8:03,BNYB045,"32 Alpine Ave, Toronto, ON M6P 3Z7",5,24,2108,8463,3.827823731
32,BNYB045,"32 Alpine Ave, Toronto, ON M6P 3Z7",24/10/2017 8:38,43.6638,-79.45516,24/10/2017 8:43,BNYB045,"18-20 Machells Ave, Toronto, ON M6K",8,24,1504,302,3.564317956
33,BNYB045,"18-20 Machells Ave, Toronto, ON M6K",24/10/2017 9:08,43.64028,-79.42506,24/10/2017 16:16,BNYB045,"128 High Park Ave, Toronto, ON M6P 2S4",9,24,2456,25690,3.924682021
34,BNYB045,"128 High Park Ave, Toronto, ON M6P 2S4",24/10/2017 16:57,43.65802,-79.46723,24/10/2017 18:08,BNYB045,"1114 Queen St W, Toronto, ON M6J 1H9",16,24,1826,4259,3.900953434
35,BNYB045,"1114 Queen St W, Toronto, ON M6J 1H9",24/10/2017 18:38,43.64333,-79.4232,24/10/2017 20:49,BNYB045,"1621 Queen St W, Toronto, ON M6R 1B1",18,24,1203,7872,1.815631557
46,BNYB048,"64 Roseneath Gardens, York, ON M6C 3X6",17/10/2017 18:59,43.68427,-79.43539,17/10/2017 21:01,BNYB048,"108 Borden St, Toronto, ON M5S 2N1",18,17,3638,7322,3.601381096
47,BNYB048,"108 Borden St, Toronto, ON M5S 2N1",17/10/2017 22:01,43.65966,-79.40628,18/10/2017 8:38,BNYB048,"474 Adelaide St E, Toronto, ON M5A 1N6",22,17,7246,38199,3.359879594
48,BNYB048,"474 Adelaide St E, Toronto, ON M5A 1N6",18/10/2017 10:39,43.65282,-79.3656,18/10/2017 13:20,BNYB048,Where I Park-480 Adelaide St W(3 rsvd spaces),10,18,1804,9670,2.858427127
49,BNYB048,Where I Park-480 Adelaide St W(3 rsvd spaces),18/10/2017 13:50,43.64599,-79.39985,18/10/2017 17:46,BNYB048,"245 Glenrose Ave, Toronto, ON M4T 1L1",13,18,2127,14190,5.292088566
50,BNYB048,"245 Glenrose Ave, Toronto, ON M4T 1L1",18/10/2017 18:22,43.69065,-79.37711,18/10/2017 18:27,BNYB048,"35 Boardwalk Dr, Toronto, ON M4L 3Y8",18,18,2407,300,6.215574864
52,BNYB048,"1787 Queen St E, Toronto, ON M4L 3Y3",18/10/2017 21:17,43.66804,-79.30877,19/10/2017 7:36,BNYB048,"34-36 Sarah Ashbridge Ave, Toronto, ON M4L 3Y9",21,18,602,37115,0.308308714
53,BNYB048,"34-36 Sarah Ashbridge Ave, Toronto, ON M4L 3Y9",19/10/2017 7:46,43.66531,-79.3081,19/10/2017 8:16,BNYB048,"456 Wellington St W, Toronto, ON M5V 1E9",7,19,3309,1807,7.561348491
54,BNYB048,"456 Wellington St W, Toronto, ON M5V 1E9",19/10/2017 9:11,43.64354,-79.39714,19/10/2017 9:16,BNYB048,"Green P-31 Parliament St(surface lot, not garage)",9,19,1505,301,2.929614795
55,BNYB048,"Green P-31 Parliament St(surface lot, not garage)",19/10/2017 9:41,43.64955,-79.36169,19/10/2017 12:03,BNYB048,"207 Queensdale Ave, East York, ON M4C 2B1",9,19,6365,8535,5.275640163
56,BNYB048,"207 Queensdale Ave, East York, ON M4C 2B1",19/10/2017 13:50,43.68838,-79.324,20/10/2017 5:15,BNYB048,"762 Dundas St W, Toronto, ON M6J 1T8",13,19,2134,55553,7.779637072
57,BNYB048,"762 Dundas St W, Toronto, ON M6J 1T8",20/10/2017 5:51,43.65219,-79.40678,20/10/2017 8:12,BNYB048,"465 Huron St, Toronto, ON M5R 3P2",5,20,2129,8469,1.791154824
58,BNYB048,"465 Huron St, Toronto, ON M5R 3P2",20/10/2017 8:48,43.66787,-79.40168,20/10/2017 14:46,BNYB048,"138 Grace St, Toronto, ON M6J 2S2",8,20,1506,21471,1.86630154
59,BNYB048,"138 Grace St, Toronto, ON M6J 2S2",20/10/2017 15:11,43.65433,-79.41539,20/10/2017 16:16,BNYB048,TargetPark-88 Isabella St (no double parking),15,20,1847,3936,3.174153088
60,BNYB048,TargetPark-88 Isabella St (no double parking),20/10/2017 16:47,43.66878,-79.38136,20/10/2017 17:47,BNYB048,"74 Manning Ave, Toronto, ON M6J 2K5",16,20,3008,3630,3.221429267
61,BNYB048,"74 Manning Ave, Toronto, ON M6J 2K5",20/10/2017 18:38,43.64837,-79.40978,20/10/2017 19:08,BNYB048,"502 Salem Ave N, Toronto, ON M6H 3E1",18,20,2460,1826,3.492192262
62,BNYB048,"502 Salem Ave N, Toronto, ON M6H 3E1",20/10/2017 19:49,43.67298,-79.43675,20/10/2017 20:25,BNYB048,"79-85 Sussex Ave, Toronto, ON M5S 2L4",19,20,1547,2132,2.722633418
63,BNYB048,"79-85 Sussex Ave, Toronto, ON M5S 2L4",20/10/2017 20:50,43.66409,-79.40521,20/10/2017 22:56,BNYB048,"90 Shank St, Toronto, ON M6J 3W1",20,20,2749,7519,2.58046172
64,BNYB048,"90 Shank St, Toronto, ON M6J 3W1",20/10/2017 23:42,43.6422,-79.41586,21/10/2017 10:39,BNYB048,"22 Parkwood Ave, Toronto, ON M4V 2X1",23,20,4813,39470,4.919801521
65,BNYB048,"22 Parkwood Ave, Toronto, ON M4V 2X1",21/10/2017 12:00,43.68623,-79.40984,21/10/2017 12:20,BNYB048,GreenP-1155 King st W(no double parking),12,21,4512,1224,5.506657628
66,BNYB048,GreenP-1155 King st W(no double parking),21/10/2017 13:35,43.63778,-79.42401,22/10/2017 10:11,BNYB048,CVPA-134 Sterling Rd (on street only),13,21,902,74147,2.490528526
67,BNYB048,CVPA-134 Sterling Rd (on street only),22/10/2017 10:26,43.65438,-79.44479,22/10/2017 14:57,BNYB048,"6-8 Geoffrey St, Toronto, ON M6R 1P3",10,22,10665,16275,0.60745475
69,BNYB048,"280-282 Roncesvalles Ave, Toronto, ON M6R 2M2",23/10/2017 0:03,43.6479,-79.44967,23/10/2017 7:14,BNYB048,"123 Westminster Ave, Toronto, ON M6R 1N6",0,23,608,25876,0.08674697
70,BNYB048,"123 Westminster Ave, Toronto, ON M6R 1N6",23/10/2017 7:24,43.64712,-79.44965,23/10/2017 10:37,BNYB048,"84 Shannon St, Toronto, ON M6J 2E7",7,23,1818,11573,2.033310902
71,BNYB048,"84 Shannon St, Toronto, ON M6J 2E7",23/10/2017 11:07,43.65287,-79.42566,23/10/2017 14:16,BNYB048,"577-579 Palmerston Ave, Toronto, ON M6G 2P6",11,23,1544,11293,1.705993982
72,BNYB048,"577-579 Palmerston Ave, Toronto, ON M6G 2P6",23/10/2017 14:41,43.66569,-79.41401,23/10/2017 17:09,BNYB048,"272 Palmerston Ave, Toronto, ON M6J 2J4",14,23,474,8885,1.258917619
81,BNYB050,"180 Pickering St, Toronto, ON M4E 3J8",17/10/2017 10:09,43.68411,-79.29156,17/10/2017 22:16,BNYB050,Starlight-80 Wellesley St E (behind building),10,17,1830,43643,7.397930832
82,BNYB050,Starlight-80 Wellesley St E (behind building),17/10/2017 22:47,43.6663,-79.38019,18/10/2017 8:43,BNYB050,"54 Parliament St, Toronto, ON M5A 0B2",22,17,1532,35766,2.264144473
83,BNYB050,"54 Parliament St, Toronto, ON M5A 0B2",18/10/2017 9:08,43.65037,-79.36266,18/10/2017 10:24,BNYB050,"35 Longboat Ave, Toronto, ON M5A 4C9",9,18,4855,4512,0.288256737
84,BNYB050,"35 Longboat Ave, Toronto, ON M5A 4C9",18/10/2017 11:44,43.64815,-79.36451,18/10/2017 16:41,BNYB050,"97 Joseph Duggan Rd, Toronto, ON M4L 3X5",11,18,2433,17773,5.049412229
85,BNYB050,"97 Joseph Duggan Rd, Toronto, ON M4L 3X5",18/10/2017 17:21,43.66749,-79.30772,18/10/2017 19:22,BNYB050,"83 Joseph Duggan Rd, Toronto, ON M4L 3X5",17,18,6317,7241,0.052560054
86,BNYB050,"83 Joseph Duggan Rd, Toronto, ON M4L 3X5",18/10/2017 21:07,43.66704,-79.30752,18/10/2017 21:17,BNYB050,"108 W Lynn Ave, Toronto, ON M4C 3W2",21,18,1203,602,2.046252532
88,BNYB050,"2035 Danforth Ave, Toronto, ON M4C 1J8",18/10/2017 21:47,43.6854,-79.3138,19/10/2017 8:06,BNYB050,"Mercedes-Benz Midtown (1 spot in back, 1 car only)",21,18,5718,37116,4.842209688
89,BNYB050,"Mercedes-Benz Midtown (1 spot in back, 1 car only)",19/10/2017 9:41,43.71258,-79.36086,20/10/2017 18:23,BNYB050,"156-166 Eastern Ave Diversion, Toronto, ON M5A 3N1",9,19,1827,31280,6.440936296
90,BNYB050,"156-166 Eastern Ave Diversion, Toronto, ON M5A 3N1",20/10/2017 18:53,43.65479,-79.3554,20/10/2017 19:29,BNYB050,"277 Hillsdale Ave E, Toronto, ON M4S 1T7",18,20,3362,2132,6.183451556
91,BNYB050,"277 Hillsdale Ave E, Toronto, ON M4S 1T7",20/10/2017 20:25,43.70471,-79.38928,21/10/2017 9:03,BNYB050,"92 Seaton St, Toronto, ON M5A 2T3",20,20,3057,45521,5.547999578
92,BNYB050,"92 Seaton St, Toronto, ON M5A 2T3",21/10/2017 9:54,43.65704,-79.36891,21/10/2017 9:59,BNYB050,TargetPark-88 Isabella St (no double parking),9,21,1203,301,1.645327138
93,BNYB050,TargetPark-88 Isabella St (no double parking),21/10/2017 10:19,43.66878,-79.38136,21/10/2017 14:35,BNYB050,Starlight -155 Wellesley St E (rsvd spaces only),10,21,9327,15361,0.563268224
94,BNYB050,Starlight -155 Wellesley St E (rsvd spaces only),21/10/2017 17:11,43.66604,-79.37547,21/10/2017 17:31,BNYB050,"408 Ontario St, Toronto, ON M5A 2W1",17,21,25713,1202,0.639237828
95,BNYB050,"408 Ontario St, Toronto, ON M5A 2W1",22/10/2017 0:39,43.66199,-79.36983,22/10/2017 9:41,BNYB050,"22 Rosehill Ave, Toronto, ON M4T 1G5",0,22,2105,32491,3.278965053
96,BNYB050,"22 Rosehill Ave, Toronto, ON M4T 1G5",22/10/2017 10:16,43.68661,-79.39227,22/10/2017 10:56,BNYB050,"77 Chestnut Park, Toronto, ON M4W",10,22,602,2409,1.052293362
97,BNYB050,"77 Chestnut Park, Toronto, ON M4W",22/10/2017 11:06,43.67974,-79.38327,22/10/2017 16:04,BNYB050,"23 Spruce St, Toronto, ON M5A 2H8",11,22,6977,17855,2.262081401
98,BNYB050,"23 Spruce St, Toronto, ON M5A 2H8",22/10/2017 18:00,43.66343,-79.36646,22/10/2017 18:25,BNYB050,"115 Saulter St S, Toronto, ON M4M",18,22,1506,1525,2.379958544
99,BNYB050,"115 Saulter St S, Toronto, ON M4M",22/10/2017 18:51,43.6504,-79.34299,22/10/2017 18:56,BNYB050,"1240-1242 Queen St E, Toronto, ON M4L 1C3",18,22,927,301,1.807015968
100,BNYB050,"1240-1242 Queen St E, Toronto, ON M4L 1C3",22/10/2017 19:11,43.66341,-79.32953,22/10/2017 20:16,BNYB050,Unit Park-73 The Esplanade(surface lot),19,22,2132,3910,3.964469546
101,BNYB050,Unit Park-73 The Esplanade(surface lot),22/10/2017 20:52,43.64703,-79.3733,22/10/2017 23:17,BNYB050,"209 Glenlake Ave, Toronto, ON M6P",20,22,1509,8728,7.306286723
102,BNYB050,"209 Glenlake Ave, Toronto, ON M6P",22/10/2017 23:42,43.65808,-79.46282,23/10/2017 4:57,BNYB050,"38 Wellington St E, Toronto, ON M5E",23,22,911,18911,7.148946638
103,BNYB050,"38 Wellington St E, Toronto, ON M5E",23/10/2017 5:13,43.64842,-79.37497,23/10/2017 6:13,BNYB050,"190-248 Glenlake Ave, Toronto, ON M6P",5,23,909,3642,7.151037555
104,BNYB050,"190-248 Glenlake Ave, Toronto, ON M6P",23/10/2017 6:29,43.65811,-79.46284,23/10/2017 9:06,BNYB050,"44 Jerome St, Toronto, ON M6P 1H7",6,23,3662,9429,0.60709103
105,BNYB050,"44 Jerome St, Toronto, ON M6P 1H7",23/10/2017 10:07,43.66117,-79.45659,23/10/2017 10:32,BNYB050,"89 Hillsdale Ave W, Toronto, ON M5P 1G2",10,23,3031,1519,6.425422319
107,BNYB050,"134-136 Gloucester Grove, York, ON M6C 2B1",24/10/2017 18:03,43.69616,-79.44044,24/10/2017 19:54,BNYB050,"20 Leslie St, Toronto, ON M4M 3H9",18,24,3657,6643,9.790990607
118,BNYB053,"131 Victoria Park Ave, Toronto, ON M4E 3S8",17/10/2017 17:58,43.67985,-79.28358,18/10/2017 9:08,BNYB053,"7 Rose Park Crescent, Toronto, ON M4T 1P8",17,17,28643,54601,8.550933279
119,BNYB053,"7 Rose Park Crescent, Toronto, ON M4T 1P8",18/10/2017 17:06,43.69074,-79.38885,18/10/2017 18:12,BNYB053,"110 Hiawatha Rd, Toronto, ON M4L 2X8",17,18,1803,3961,5.734991485
120,BNYB053,"110 Hiawatha Rd, Toronto, ON M4L 2X8",18/10/2017 18:42,43.67152,-79.32267,18/10/2017 20:37,BNYB053,"187-221 Balliol St, Toronto, ON M4S",18,18,3911,6919,6.210517339
121,BNYB053,"187-221 Balliol St, Toronto, ON M4S",18/10/2017 21:42,43.69873,-79.39012,18/10/2017 23:08,BNYB053,"151 Eastern Ave Diversion, Toronto, ON M5A 1H7",21,18,2452,5114,5.627310666
122,BNYB053,"151 Eastern Ave Diversion, Toronto, ON M5A 1H7",18/10/2017 23:48,43.65464,-79.35577,19/10/2017 8:16,BNYB053,"55-57 St Lawrence St, Toronto, ON M5A 3N1",23,18,1805,30454,0.054347295
123,BNYB053,"55-57 St Lawrence St, Toronto, ON M5A 3N1",19/10/2017 8:46,43.65485,-79.35516,19/10/2017 9:01,BNYB053,"39 Natalie Pl, Toronto, ON M4M 3P6",8,19,1505,902,1.363111196
124,BNYB053,"39 Natalie Pl, Toronto, ON M4M 3P6",19/10/2017 9:26,43.66273,-79.34218,19/10/2017 10:01,BNYB053,"2 Eaton Ave, Toronto, ON M4J 2Z5",9,19,2127,2107,1.877616473
125,BNYB053,"2 Eaton Ave, Toronto, ON M4J 2Z5",19/10/2017 10:37,43.6796,-79.34319,19/10/2017 11:28,BNYB053,"72 Paisley Ave, Toronto, ON M4M 2N7",10,19,902,3077,1.792044186
126,BNYB053,"72 Paisley Ave, Toronto, ON M4M 2N7",19/10/2017 11:43,43.66349,-79.34381,19/10/2017 13:30,BNYB053,"61 Crewe Ave, East York, ON M4C 2J2",11,19,1203,6387,4.541239451
127,BNYB053,"61 Crewe Ave, East York, ON M4C 2J2",19/10/2017 13:50,43.69407,-79.30638,20/10/2017 7:37,BNYB053,Impark-47 Richmond St E (dedicated spaces only),13,19,2106,64050,7.293954321
128,BNYB053,Impark-47 Richmond St E (dedicated spaces only),20/10/2017 8:12,43.65218,-79.37617,20/10/2017 14:15,BNYB053,"70 Distillery Lane, Toronto, ON M5A 0E3",8,20,924,21774,1.506140522
129,BNYB053,"70 Distillery Lane, Toronto, ON M5A 0E3",20/10/2017 14:30,43.64993,-79.35771,20/10/2017 14:40,BNYB053,"1117 Queen St E, Toronto, ON M4M 1K9",14,20,905,601,2.280146436
130,BNYB053,"1117 Queen St E, Toronto, ON M4M 1K9",20/10/2017 14:56,43.66216,-79.33496,20/10/2017 15:06,BNYB053,"12 Rack House Mews, Toronto, ON M5A 3C4",14,20,902,602,2.268905854
131,BNYB053,"12 Rack House Mews, Toronto, ON M5A 3C4",20/10/2017 15:21,43.65012,-79.35773,20/10/2017 17:07,BNYB053,TargetPark-249 Queens Quay W(Radisson Garage),15,20,2126,6384,2.574793816
133,BNYB053,Green P-35 Erindale Ave(no double parking),22/10/2017 18:25,43.67732,-79.35747,22/10/2017 20:57,BNYB053,"1339 Queen St E, Toronto, ON M4L 1C6",18,22,4517,9077,2.891439668
134,BNYB053,"1339 Queen St E, Toronto, ON M4L 1C6",22/10/2017 22:12,43.66403,-79.32657,23/10/2017 7:19,BNYB053,"19 Ashdale Ave, Toronto, ON M4L 2Y6",22,22,305,32828,0.69093909
135,BNYB053,"19 Ashdale Ave, Toronto, ON M4L 2Y6",23/10/2017 7:24,43.66652,-79.3187,23/10/2017 7:24,BNYB053,"37 Queen St E, Toronto, ON M5C 1R5",7,23,5178,0,4.945814592
136,BNYB053,"37 Queen St E, Toronto, ON M5C 1R5",23/10/2017 8:50,43.65266,-79.37712,23/10/2017 10:27,BNYB053,"Green P-31 Parliament St(surface lot, not garage)",8,23,912,5786,1.288698975
137,BNYB053,"Green P-31 Parliament St(surface lot, not garage)",23/10/2017 10:42,43.64955,-79.36169,23/10/2017 18:41,BNYB053,"433 Main St, East York, ON M4C 4Y1",10,23,9667,28721,6.71832547
138,BNYB053,"433 Main St, East York, ON M4C 4Y1",23/10/2017 21:22,43.69319,-79.30392,24/10/2017 21:45,BNYB053,"304 Kenilworth Ave, Toronto, ON M4L 3S8",21,23,601,1365,2.004088966
139,BNYB053,"304 Kenilworth Ave, Toronto, ON M4L 3S8",24/10/2017 21:55,43.67517,-79.30439,24/10/2017 22:30,BNYB053,"5 Rainsford Rd, Toronto, ON M4L 3N5",21,24,302,2109,0.733435318
148,BNYB054,"23 Temple Ave, Toronto, ON M6K 1C7",17/10/2017 9:10,43.63613,-79.42711,17/10/2017 17:43,BNYB054,"60 Garnock Ave, Toronto, ON M4K 1M2",9,17,1806,30813,7.703569025
149,BNYB054,"60 Garnock Ave, Toronto, ON M4K 1M2",17/10/2017 18:13,43.67648,-79.34927,17/10/2017 18:28,BNYB054,"199 Laughton Ave, Toronto, ON M6N 2X7",18,17,5790,903,8.672571132
150,BNYB054,"199 Laughton Ave, Toronto, ON M6N 2X7",17/10/2017 20:05,43.67337,-79.45702,18/10/2017 11:04,BNYB054,"5-7 Bryant Ave, East York, ON M4C 5G8",20,17,12057,53943,13.60426159
151,BNYB054,"5-7 Bryant Ave, East York, ON M4C 5G8",18/10/2017 14:25,43.69326,-79.29009,19/10/2017 11:33,BNYB054,"72 Hastings Ave, Toronto, ON M4L 2L2",14,18,4259,76086,4.446213828
152,BNYB054,"72 Hastings Ave, Toronto, ON M4L 2L2",19/10/2017 12:44,43.66555,-79.32995,19/10/2017 17:16,BNYB054,"7 Oxley St, Toronto, ON M5V",12,19,2405,16311,5.590616267
153,BNYB054,"7 Oxley St, Toronto, ON M5V",19/10/2017 17:56,43.64634,-79.39417,19/10/2017 18:26,BNYB054,"26 Gladstone Ave, Toronto, ON M6J 3K6",17,19,3008,1805,2.704932392
154,BNYB054,"26 Gladstone Ave, Toronto, ON M6J 3K6",19/10/2017 19:16,43.64352,-79.42756,19/10/2017 19:31,BNYB054,"91 Shank St, Toronto, ON M6K 1E6",19,19,6968,902,0.976908114
155,BNYB054,"91 Shank St, Toronto, ON M6K 1E6",19/10/2017 21:27,43.64193,-79.41562,20/10/2017 0:23,BNYB054,Green P-800 Fleet St(No Double Parking),21,19,602,10553,0.732805009
156,BNYB054,Green P-800 Fleet St(No Double Parking),20/10/2017 0:33,43.63691,-79.40972,20/10/2017 8:33,BNYB054,The Garrison-169 Fort York BLVD (1 car/space only),0,20,11433,28760,0.664716189
157,BNYB054,The Garrison-169 Fort York BLVD (1 car/space only),20/10/2017 11:43,43.63779,-79.40155,20/10/2017 17:53,BNYB054,"Impark-22 Fort York(garage under sobeys, 5 spaces)",11,20,601,22161,0.64322354
158,BNYB054,"Impark-22 Fort York(garage under sobeys, 5 spaces)",20/10/2017 18:03,43.64066,-79.39461,20/10/2017 18:03,BNYB054,"8 Athletic Ave, Toronto, ON M4L 1W6",18,20,3330,0,6.308556929
159,BNYB054,"8 Athletic Ave, Toronto, ON M4L 1W6",20/10/2017 18:58,43.66951,-79.32709,20/10/2017 18:58,BNYB054,"1444 Queen St E, Toronto, ON M4L 1E2",18,20,1504,0,0.650582791
160,BNYB054,"1444 Queen St E, Toronto, ON M4L 1E2",20/10/2017 19:23,43.6652,-79.32162,20/10/2017 19:44,BNYB054,"1400 Queen St E, Toronto, ON M4L 1C9",19,20,3680,1257,0.250288588
162,BNYB054,"1339-1341 Queen St E, Toronto, ON M4L 1C6",20/10/2017 21:05,43.66409,-79.32641,21/10/2017 6:43,BNYB054,UofT-42 Harbord St-car2go park signs (enter alley),21,20,2709,34646,6.002465532
163,BNYB054,UofT-42 Harbord St-car2go park signs (enter alley),21/10/2017 7:28,43.66373,-79.40103,21/10/2017 8:43,BNYB054,"116-120 Major St, Toronto, ON M5S 2L2",7,21,2433,4512,0.372338724
164,BNYB054,"116-120 Major St, Toronto, ON M5S 2L2",21/10/2017 9:24,43.66145,-79.40442,21/10/2017 11:35,BNYB054,"103 Borden St, Toronto, ON M5S 2M8",9,21,2210,7845,0.212295889
165,BNYB054,"103 Borden St, Toronto, ON M5S 2M8",22/10/2017 12:11,43.66023,-79.40645,22/10/2017 13:12,BNYB054,"32-34 Coleridge Ave, East York, ON M4C 4H5",12,22,5112,3612,8.161650539
166,BNYB054,"32-34 Coleridge Ave, East York, ON M4C 4H5",22/10/2017 14:37,43.68789,-79.31245,22/10/2017 19:11,BNYB054,"1949 Danforth Ave, Toronto, ON M4C 1J4",14,22,602,16454,0.433781845
167,BNYB054,"1949 Danforth Ave, Toronto, ON M4C 1J4",22/10/2017 19:21,43.68494,-79.31598,23/10/2017 6:44,BNYB054,"112 W Lynn Ave, Toronto, ON M4C 3W2",19,22,607,40961,0.035682723
168,BNYB054,"112 W Lynn Ave, Toronto, ON M4C 3W2",23/10/2017 6:54,43.68465,-79.31617,23/10/2017 9:57,BNYB054,"23 Murdock Ave, Toronto, ON M4C 1E3",6,23,914,10963,0.174901299
169,BNYB054,"23 Murdock Ave, Toronto, ON M4C 1E3",23/10/2017 10:12,43.6831,-79.3158,23/10/2017 16:59,BNYB054,"1581 Queen St E, Toronto, ON M4L 1E7",10,23,13650,24451,1.903794811
170,BNYB054,"1581 Queen St E, Toronto, ON M4L 1E7",23/10/2017 20:47,43.66603,-79.31763,24/10/2017 7:02,BNYB054,Targetpark-539 King St W (1 Spot),20,23,2107,36930,6.90611603
171,BNYB054,Targetpark-539 King St W (1 Spot),24/10/2017 7:37,43.64446,-79.39813,24/10/2017 9:23,BNYB054,"56-90 Boston Ave, Toronto, ON M4M 2T9",7,24,1808,6324,5.161230798
172,BNYB054,"56-90 Boston Ave, Toronto, ON M4M 2T9",24/10/2017 9:53,43.66383,-79.33983,24/10/2017 10:28,BNYB054,Targetpark-Loblaws Queens Quay E(enter off Jarvis),9,24,1205,2129,3.220247005
173,BNYB054,Targetpark-Loblaws Queens Quay E(enter off Jarvis),24/10/2017 10:48,43.64456,-79.36971,24/10/2017 13:45,BNYB054,"1 Lark St, Toronto, ON M4L 3M5",10,24,1809,10589,5.434794618
174,BNYB054,"1 Lark St, Toronto, ON M4L 3M5",24/10/2017 14:15,43.66804,-79.31046,24/10/2017 15:15,BNYB054,Unit Park-73 The Esplanade(surface lot),14,24,2731,3615,5.569015034
175,BNYB054,Unit Park-73 The Esplanade(surface lot),24/10/2017 16:01,43.64703,-79.3733,24/10/2017 16:21,BNYB054,"26 De Savery Crescent, Toronto, ON M4S 2L2",16,24,3081,1203,6.423860971
176,BNYB054,"26 De Savery Crescent, Toronto, ON M4S 2L2",24/10/2017 17:12,43.70359,-79.38957,24/10/2017 19:43,BNYB054,"55 Redpath Ave, Toronto, ON M4S",17,24,3959,9072,0.226743679
181,BNYB056,"2 Woodycrest Ave, Toronto, ON M4J 3A5",17/10/2017 7:04,43.67999,-79.34197,17/10/2017 7:40,BNYB056,"Green P-31 Parliament St(surface lot, not garage)",7,17,6645,2106,3.738022146
183,BNYB056,"211 Distillery Lane, Toronto, ON M5A 3C4",18/10/2017 11:19,43.65022,-79.3574,18/10/2017 14:40,BNYB056,"21 Empire Ave, Toronto, ON M4M 2L3",11,18,3632,12056,1.407814041
184,BNYB056,"21 Empire Ave, Toronto, ON M4M 2L3",18/10/2017 15:41,43.65793,-79.34352,18/10/2017 18:32,BNYB056,Green P-25 Dundas St E(no double parking),15,18,3309,10277,2.936961338
185,BNYB056,Green P-25 Dundas St E(no double parking),18/10/2017 19:27,43.656,-79.37993,18/10/2017 20:32,BNYB056,"131 Victoria Park Ave, Toronto, ON M4E 3S8",19,18,3308,3911,8.190083082
186,BNYB056,"131 Victoria Park Ave, Toronto, ON M4E 3S8",18/10/2017 21:27,43.68037,-79.28384,19/10/2017 7:11,BNYB056,Unit Park-73 The Esplanade(surface lot),21,18,2407,35010,8.094874314
187,BNYB056,Unit Park-73 The Esplanade(surface lot),19/10/2017 7:51,43.64703,-79.3733,19/10/2017 16:26,BNYB056,"88 Dunkirk Rd, East York, ON M4C 2M6",7,19,9926,30892,6.821785129
188,BNYB056,"88 Dunkirk Rd, East York, ON M4C 2M6",19/10/2017 19:11,43.6931,-79.31729,19/10/2017 19:26,BNYB056,Green P-35 Erindale Ave(no double parking),19,19,13308,902,3.676600362
189,BNYB056,Green P-35 Erindale Ave(no double parking),19/10/2017 23:08,43.67732,-79.35747,20/10/2017 8:28,BNYB056,Impark-47 Richmond St E (dedicated spaces only),23,19,1204,33574,3.17443695
190,BNYB056,Impark-47 Richmond St E (dedicated spaces only),20/10/2017 8:48,43.65218,-79.37617,20/10/2017 8:58,BNYB056,"22-24 Thorburn Ave, Toronto, ON M6K 1C5",8,20,903,601,4.509851234
191,BNYB056,"22-24 Thorburn Ave, Toronto, ON M6K 1C5",20/10/2017 9:13,43.63536,-79.42717,20/10/2017 9:38,BNYB056,"155 Eastern Ave Diversion, Toronto, ON M5A 1H7",9,20,3310,1504,6.135494891
192,BNYB056,"155 Eastern Ave Diversion, Toronto, ON M5A 1H7",20/10/2017 10:33,43.65465,-79.35573,20/10/2017 11:23,BNYB056,"112 Ashdale Ave, Toronto, ON M4L 2Y9",10,20,3632,3008,3.240586851
193,BNYB056,"112 Ashdale Ave, Toronto, ON M4L 2Y9",20/10/2017 12:24,43.66852,-79.3203,20/10/2017 12:54,BNYB056,"157-167 Eastern Ave Diversion, Toronto, ON M5A 1H7",12,20,1504,1805,3.201345536
194,BNYB056,"157-167 Eastern Ave Diversion, Toronto, ON M5A 1H7",20/10/2017 13:19,43.65475,-79.35525,20/10/2017 15:41,BNYB056,"223a McRae Dr, East York, ON M4G 1J6",13,20,1804,8541,6.054720828
195,BNYB056,"223a McRae Dr, East York, ON M4G 1J6",20/10/2017 16:11,43.70872,-79.36524,20/10/2017 17:07,BNYB056,"1242 Pirandello St, Toronto, ON M6K 3P4",16,20,3630,3351,8.670723746
196,BNYB056,"1242 Pirandello St, Toronto, ON M6K 3P4",20/10/2017 18:08,43.63921,-79.4141,20/10/2017 18:48,BNYB056,"Impark-22 Fort York(garage under sobeys, 5 spaces)",18,20,2105,2428,1.576641072
197,BNYB056,"Impark-22 Fort York(garage under sobeys, 5 spaces)",20/10/2017 19:23,43.64066,-79.39461,20/10/2017 20:10,BNYB056,"4 Oaklawn Gardens, Toronto, ON M4V 2C6",19,20,2150,2787,5.46452119
198,BNYB056,"4 Oaklawn Gardens, Toronto, ON M4V 2C6",20/10/2017 20:45,43.68966,-79.3998,20/10/2017 23:16,BNYB056,"46 Robinson St, Toronto, ON M6J 1L2",20,20,1847,9022,4.616410763
199,BNYB056,"46 Robinson St, Toronto, ON M6J 1L2",20/10/2017 23:47,43.64845,-79.40676,21/10/2017 1:08,BNYB056,"49 Heath St W, Toronto, ON M4V 1T2",23,20,2206,4877,4.650306453
201,BNYB056,"15 St Clair Ave E, Toronto, ON M4T 1L8",21/10/2017 19:32,43.68794,-79.39294,24/10/2017 20:19,BNYB056,TargetPark-249 Queens Quay W(Radisson Garage),19,21,2131,2829,5.520182734
202,BNYB056,TargetPark-249 Queens Quay W(Radisson Garage),24/10/2017 20:54,43.63859,-79.38548,24/10/2017 21:05,BNYB056,"70-74 Niagara St, Toronto, ON M5V 1C5",20,24,3915,601,1.471708672
218,BNYB057,"Impark-65 Navy Wharf(underground garage, 5 spaces)",17/10/2017 19:04,43.64111,-79.39161,18/10/2017 9:23,BNYB057,"30 Western Battery Rd, Toronto, ON M6K 3P1",19,17,4512,51591,1.690688572
219,BNYB057,"30 Western Battery Rd, Toronto, ON M6K 3P1",18/10/2017 10:39,43.63996,-79.41256,18/10/2017 17:56,BNYB057,"406 St Clarens Ave, Toronto, ON M6H 3W3",10,18,3630,26266,3.03689589
220,BNYB057,"406 St Clarens Ave, Toronto, ON M6H 3W3",18/10/2017 18:57,43.65769,-79.44127,18/10/2017 21:42,BNYB057,"149a Brandon Ave, Toronto, ON M6H 2E3",18,18,1204,9927,1.319103526
221,BNYB057,"149a Brandon Ave, Toronto, ON M6H 2E3",18/10/2017 22:02,43.66912,-79.44566,19/10/2017 1:59,BNYB057,"476 McRoberts Ave, York, ON M6E 4R4",22,18,902,14226,2.266274101
222,BNYB057,"476 McRoberts Ave, York, ON M6E 4R4",19/10/2017 2:15,43.68727,-79.45848,19/10/2017 20:27,BNYB057,"CVPA - 1094 Davenport Rd(on street, 3 cars only)",2,19,902,65538,2.682564999
223,BNYB057,"CVPA - 1094 Davenport Rd(on street, 3 cars only)",19/10/2017 20:42,43.67478,-79.42994,20/10/2017 8:48,BNYB057,"287 Booth Ave, Toronto, ON M4M 2M7",20,19,4813,43548,6.993876224
224,BNYB057,"287 Booth Ave, Toronto, ON M4M 2M7",20/10/2017 10:08,43.66283,-79.34457,20/10/2017 11:28,BNYB057,"814 Gerrard St E, Toronto, ON M4M 1Y7",10,20,11543,4814,0.504876871
225,BNYB057,"814 Gerrard St E, Toronto, ON M4M 1Y7",20/10/2017 14:40,43.66737,-79.34466,20/10/2017 19:08,BNYB057,"1-15 Jackman Ave, Toronto, ON M4K 1N6",14,20,2761,16054,1.351186163
227,BNYB057,"32 Joseph Duggan Rd, Toronto, ON M4L 3Y2",21/10/2017 12:20,43.66567,-79.30705,21/10/2017 21:38,BNYB057,"1834a Queen St E, Toronto, ON M4L 1G9",12,21,602,33461,0.300068203
228,BNYB057,"1834a Queen St E, Toronto, ON M4L 1G9",21/10/2017 21:48,43.66821,-79.30831,22/10/2017 6:53,BNYB057,"5 Mountjoy Ave, Toronto, ON M4J 1J4",21,21,4266,32718,2.289308125
229,BNYB057,"5 Mountjoy Ave, Toronto, ON M4J 1J4",22/10/2017 8:04,43.6802,-79.33145,22/10/2017 8:09,BNYB057,"18 Mosley St, Toronto, ON M4M 1G2",8,22,2798,301,2.240610615
230,BNYB057,"18 Mosley St, Toronto, ON M4M 1G2",22/10/2017 8:56,43.66007,-79.3302,22/10/2017 10:46,BNYB057,"326 Monarch Park Ave, East York, ON M4J 4T1",8,22,1807,6618,3.264685523
231,BNYB057,"326 Monarch Park Ave, East York, ON M4J 4T1",22/10/2017 11:16,43.68943,-79.33025,22/10/2017 14:02,BNYB057,"8 Meadow Ave, Scarborough, ON M1N 1V6",11,22,2432,9931,3.80649338
232,BNYB057,"8 Meadow Ave, Scarborough, ON M1N 1V6",22/10/2017 14:42,43.68165,-79.28415,22/10/2017 15:47,BNYB057,"171 Linsmore Cres, East York, ON M4J 4L3",14,22,7958,3910,3.966926089
233,BNYB057,"171 Linsmore Cres, East York, ON M4J 4L3",22/10/2017 18:00,43.68888,-79.33246,22/10/2017 22:27,BNYB057,"833-835 Danforth Ave, Toronto, ON M4J 1L2",18,22,601,16022,1.22850034
235,BNYB057,"74 Chatham Ave, Toronto, ON M4J",23/10/2017 7:14,43.67957,-79.33775,23/10/2017 7:55,BNYB057,"129-137 Linsmore Cres, East York, ON M4J 4L1",7,23,936,2427,0.950382556
236,BNYB057,"129-137 Linsmore Cres, East York, ON M4J 4L1",23/10/2017 8:10,43.68698,-79.33186,23/10/2017 18:20,BNYB057,"1117 Danforth Ave, Toronto, ON M4J 1M5",8,23,634,36604,0.676710117
237,BNYB057,"1117 Danforth Ave, Toronto, ON M4J 1M5",23/10/2017 18:31,43.6811,-79.33403,24/10/2017 7:12,BNYB057,"12 Caithness Ave, Toronto, ON M4J 3X7",18,23,602,45694,0.098744687
238,BNYB057,"12 Caithness Ave, Toronto, ON M4J 3X7",24/10/2017 7:22,43.68143,-79.33517,24/10/2017 18:43,BNYB057,"1111 Danforth Ave, Toronto, ON M4J 1M5",7,24,604,40857,0.07799736
239,BNYB057,"1111 Danforth Ave, Toronto, ON M4J 1M5",24/10/2017 18:53,43.68096,-79.33445,24/10/2017 18:53,BNYB057,"1251 Gerrard St E, Toronto, ON M4L 1Y5",18,24,2406,0,1.229885964
241,BNYB057,"1615 Dundas St E, Toronto, ON M4L 1L1",24/10/2017 19:49,43.66745,-79.32826,24/10/2017 22:00,BNYB057,"418 Roxton Rd, Toronto, ON M6G 3R4",19,24,1205,7872,7.694401896
249,BNYB058,"47 Chicora Ave, Toronto, ON M5R 1T7",17/10/2017 9:15,43.67579,-79.39978,17/10/2017 12:56,BNYB058,"200 The Esplanade, Toronto, ON M5A 2P4",9,17,1204,13267,3.98734355
250,BNYB058,"200 The Esplanade, Toronto, ON M5A 2P4",17/10/2017 13:16,43.64932,-79.36634,17/10/2017 13:31,BNYB058,"Green P-31 Parliament St(surface lot, not garage)",13,17,3331,902,0.375003016
251,BNYB058,"Green P-31 Parliament St(surface lot, not garage)",17/10/2017 14:27,43.64955,-79.36169,19/10/2017 16:16,BNYB058,"199 Queen St E, Toronto, ON M5A 1S2",14,17,4953,6526,0.873524173
252,BNYB058,"199 Queen St E, Toronto, ON M5A 1S2",17/10/2017 17:38,43.65389,-79.37074,17/10/2017 17:53,BNYB058,"64 Soudan Ave, Toronto, ON M4S 1V8",17,17,3911,904,6.012279149
253,BNYB058,"64 Soudan Ave, Toronto, ON M4S 1V8",17/10/2017 18:59,43.70486,-79.39569,17/10/2017 18:59,BNYB058,"55 Redpath Ave, Toronto, ON M4S",18,17,5490,0,0.322494441
254,BNYB058,"55 Redpath Ave, Toronto, ON M4S",17/10/2017 20:30,43.70477,-79.39168,18/10/2017 7:52,BNYB058,"391 Hillsdale Ave E, Toronto, ON M4S 1T9",20,17,6967,40940,0.439447392
255,BNYB058,"391 Hillsdale Ave E, Toronto, ON M4S 1T9",18/10/2017 9:48,43.70568,-79.38636,18/10/2017 10:44,BNYB058,Starlight-80 Wellesley St E (behind building),9,18,1224,3308,4.406871976
256,BNYB058,Starlight-80 Wellesley St E (behind building),18/10/2017 11:04,43.6663,-79.38019,18/10/2017 11:19,BNYB058,Green P-15 Wellesley St. e(No Double Parking),11,18,5436,903,0.318039599
257,BNYB058,Green P-15 Wellesley St. e(No Double Parking),18/10/2017 12:50,43.66484,-79.38359,18/10/2017 15:20,BNYB058,"959 Pape Ave, East York, ON M4K 3V6",12,18,2407,9048,3.797505919
258,BNYB058,"959 Pape Ave, East York, ON M4K 3V6",18/10/2017 16:01,43.68682,-79.34745,18/10/2017 17:01,BNYB058,"1775A Danforth Ave, Toronto, ON M4C 1J1",16,18,4862,3611,2.267706853
259,BNYB058,"1775A Danforth Ave, Toronto, ON M4C 1J1",18/10/2017 18:22,43.68421,-79.31948,19/10/2017 7:41,BNYB058,Impark-47 Richmond St E (dedicated spaces only),18,18,2708,47945,5.785848895
260,BNYB058,Impark-47 Richmond St E (dedicated spaces only),19/10/2017 8:26,43.65218,-79.37617,19/10/2017 10:32,BNYB058,"106 Lee Ave, Toronto, ON M4E 2P3",8,19,21843,7544,6.609408434
261,BNYB058,"106 Lee Ave, Toronto, ON M4E 2P3",19/10/2017 16:36,43.67123,-79.29834,19/10/2017 18:51,BNYB058,"48-88 Lee Ave, Toronto, ON M4E 2P1",16,19,3610,8120,0.224044614
262,BNYB058,"48-88 Lee Ave, Toronto, ON M4E 2P1",19/10/2017 19:51,43.6693,-79.29754,19/10/2017 22:43,BNYB058,"1872 Queen St E, Toronto, ON M4L 1H2",19,19,604,10296,0.723158684
263,BNYB058,"1872 Queen St E, Toronto, ON M4L 1H2",19/10/2017 22:53,43.66868,-79.30649,20/10/2017 5:15,BNYB058,"46A Dynevor Rd, York, ON M6E 3X1",22,19,1505,22950,11.79373473
264,BNYB058,"46A Dynevor Rd, York, ON M6E 3X1",20/10/2017 5:41,43.69164,-79.44967,21/10/2017 6:43,BNYB058,"258 Brock Ave, Toronto, ON M6K 2M2",5,20,1806,3739,4.857948469
265,BNYB058,"258 Brock Ave, Toronto, ON M6K 2M2",21/10/2017 7:13,43.64919,-79.43539,21/10/2017 9:08,BNYB058,"40 Ossington Ave, Toronto, ON M6J 2Y7",7,21,1230,6919,1.335432471
266,BNYB058,"40 Ossington Ave, Toronto, ON M6J 2Y7",21/10/2017 9:29,43.64515,-79.41976,21/10/2017 9:29,BNYB058,"246 Major St, Toronto, ON M5S 2L6",9,21,1828,0,2.44400955
268,BNYB058,UofT-42 Harbord St-car2go park signs (enter alley),21/10/2017 22:33,43.66373,-79.40103,21/10/2017 22:33,BNYB058,"455-457 Spadina Rd, Toronto, ON M5P 2W5",22,21,3030,0,3.056287913
269,BNYB058,"455-457 Spadina Rd, Toronto, ON M5P 2W5",21/10/2017 23:23,43.6898,-79.41307,22/10/2017 9:41,BNYB058,"12 Anderson Ave, Toronto, ON M5P 1H3",23,21,1805,37055,1.847739482
271,BNYB058,"2 Redpath Ave, Toronto, ON M4S",22/10/2017 21:52,43.70427,-79.39138,24/10/2017 7:22,BNYB058,"63 St Clair Ave W, Toronto, ON M4V",21,22,1809,34225,2.040570486
280,BNYB059,"130A Geoffrey St, Toronto, ON M6R 1P5",17/10/2017 7:29,43.64801,-79.45007,17/10/2017 7:29,BNYB059,"673 Runnymede Rd, Toronto, ON M6P 2A4",7,17,2406,0,3.237578988
281,BNYB059,"673 Runnymede Rd, Toronto, ON M6P 2A4",17/10/2017 8:10,43.66578,-79.48195,17/10/2017 8:40,BNYB059,"284 Markham St, Toronto, ON M6J 2G6",8,17,2734,1805,6.005308691
283,BNYB059,"498-504 Euclid Ave, Toronto, ON M6G 2T3",17/10/2017 18:28,43.65925,-79.41282,17/10/2017 19:19,BNYB059,"17 First Ave, Toronto, ON M4M 1W7",18,17,3685,3008,4.965887495
284,BNYB059,"17 First Ave, Toronto, ON M4M 1W7",17/10/2017 20:20,43.66471,-79.35155,17/10/2017 21:51,BNYB059,"21 Hampton Ave, Toronto, ON M4K 2Y5",20,17,903,5468,0.909965656
285,BNYB059,"21 Hampton Ave, Toronto, ON M4K 2Y5",17/10/2017 22:06,43.67288,-79.3509,17/10/2017 23:12,BNYB059,Green P-35 Erindale Ave(no double parking),22,17,602,3936,0.723141855
287,BNYB059,"73 Rivercourt Blvd, East York, ON M4J 3A3",18/10/2017 0:38,43.69637,-79.34922,18/10/2017 6:22,BNYB059,"12 Hiltz Ave, Toronto, ON M4L 2N5",0,18,3309,20653,4.00443908
288,BNYB059,"12 Hiltz Ave, Toronto, ON M4L 2N5",18/10/2017 7:17,43.66438,-79.32635,18/10/2017 10:24,BNYB059,"36-38 Boston Ave, Toronto, ON M4M 2T9",7,18,20220,11179,1.059193524
289,BNYB059,"36-38 Boston Ave, Toronto, ON M4M 2T9",18/10/2017 16:01,43.6624,-79.33923,18/10/2017 16:06,BNYB059,"1382 A Queen St E, Toronto, ON M4L 1C9",16,18,1204,301,1.194351983
290,BNYB059,"1382 A Queen St E, Toronto, ON M4L 1C9",18/10/2017 16:26,43.66487,-79.32478,18/10/2017 18:37,BNYB059,"54 Hiltz Ave, Toronto, ON M4L 2N5",16,18,2106,7870,0.195627596
291,BNYB059,"54 Hiltz Ave, Toronto, ON M4L 2N5",18/10/2017 19:12,43.66562,-79.32698,18/10/2017 19:12,BNYB059,"336 Highfield Rd, Toronto, ON M4L 2V5",19,18,601,0,0.962585936
292,BNYB059,"336 Highfield Rd, Toronto, ON M4L 2V5",18/10/2017 19:22,43.67425,-79.32604,18/10/2017 21:02,BNYB059,"1591 Queen St E, Toronto, ON M4L 1E5",19,18,602,6016,1.14231074
293,BNYB059,"1591 Queen St E, Toronto, ON M4L 1E5",18/10/2017 21:12,43.66613,-79.31734,19/10/2017 0:59,BNYB059,"255 Logan Ave, Toronto, ON M4M 2N2",21,18,602,13625,2.107921029
295,BNYB059,"30-50 Atlantic Ave, Toronto, ON M6K 1X8",20/10/2017 8:33,43.6373,-79.42026,20/10/2017 9:38,BNYB059,"56 Lansdowne Ave, Toronto, ON M6K 2V8",8,20,1504,3911,1.503653858
296,BNYB059,"56 Lansdowne Ave, Toronto, ON M6K 2V8",20/10/2017 10:03,43.64255,-79.43748,20/10/2017 13:45,BNYB059,"402 Salem Ave N, Toronto, ON M6H 3E1",10,20,1832,13301,3.124271709
297,BNYB059,"402 Salem Ave N, Toronto, ON M6H 3E1",20/10/2017 14:15,43.67062,-79.43577,20/10/2017 14:40,BNYB059,Green P-363 Adelaide St W(no double parking),14,20,3638,1525,4.244094882
298,BNYB059,Green P-363 Adelaide St W(no double parking),20/10/2017 15:41,43.6466,-79.39477,20/10/2017 16:01,BNYB059,Starlight -155 Wellesley St E (rsvd spaces only),15,20,2427,1203,2.661466053
300,BNYB059,"51 Homewood Ave, Toronto, ON M4Y 2X4",21/10/2017 15:51,43.66477,-79.37512,21/10/2017 16:51,BNYB059,"148 Parkhurst Blvd, East York, ON M4G 2E7",15,21,5757,3610,5.113710775
301,BNYB059,"148 Parkhurst Blvd, East York, ON M4G 2E7",21/10/2017 18:27,43.71035,-79.36666,21/10/2017 20:02,BNYB059,"Impark-65 Navy Wharf(underground garage, 5 spaces)",18,21,2434,5716,7.956314725
302,BNYB059,"Impark-65 Navy Wharf(underground garage, 5 spaces)",21/10/2017 20:42,43.64111,-79.39161,22/10/2017 8:56,BNYB059,"Mercedes-Benz Midtown (1 spot in back, 1 car only)",20,21,1504,43994,8.322975843
303,BNYB059,"Mercedes-Benz Midtown (1 spot in back, 1 car only)",22/10/2017 9:21,43.71258,-79.36086,23/10/2017 8:05,BNYB059,Where I Park-1941 Yonge St(surface lot),9,22,2726,81856,3.243162042
304,BNYB059,Where I Park-1941 Yonge St(surface lot),23/10/2017 8:50,43.69895,-79.39653,23/10/2017 9:41,BNYB059,"187 Millwood Rd, Toronto, ON M4S 1J6",8,23,908,3054,0.430700185
305,BNYB059,"187 Millwood Rd, Toronto, ON M4S 1J6",23/10/2017 9:57,43.70036,-79.39154,23/10/2017 14:47,BNYB059,"48 Crewe Ave, East York, ON M4C 2J3",9,23,2732,17399,6.913323978
306,BNYB059,"48 Crewe Ave, East York, ON M4C 2J3",23/10/2017 15:32,43.6942,-79.30597,23/10/2017 16:54,BNYB059,Impark-47 Richmond St E (dedicated spaces only),15,23,2425,4931,7.32856283
307,BNYB059,Impark-47 Richmond St E (dedicated spaces only),23/10/2017 17:35,43.65218,-79.37617,23/10/2017 17:35,BNYB059,"356 Jones Ave, Toronto, ON M4J 3G3",17,23,7005,0,3.899901756
308,BNYB059,"356 Jones Ave, Toronto, ON M4J 3G3",23/10/2017 19:31,43.6732,-79.33736,24/10/2017 6:47,BNYB059,"12 Woodycrest Ave, Toronto, ON M4J 3A6",19,23,302,40547,0.881750773
309,BNYB059,"12 Woodycrest Ave, Toronto, ON M4J 3A6",24/10/2017 6:52,43.68034,-79.34213,24/10/2017 8:23,BNYB059,GreenP-1155 King st W(no double parking),6,24,3011,5422,8.110654026
310,BNYB059,GreenP-1155 King st W(no double parking),24/10/2017 9:13,43.63778,-79.42401,24/10/2017 9:23,BNYB059,"36 Silver Ave, Toronto, ON M6R 1X8",9,24,904,602,2.578597072
311,BNYB059,"36 Silver Ave, Toronto, ON M6R 1X8",24/10/2017 9:38,43.65309,-79.44808,24/10/2017 13:50,BNYB059,"520 Quebec Ave, Toronto, ON M6P 2V7",9,24,5424,15128,2.489880561
312,BNYB059,"520 Quebec Ave, Toronto, ON M6P 2V7",24/10/2017 15:20,43.66667,-79.47269,24/10/2017 21:20,BNYB059,"147 Niagara St, Toronto, ON M5V 1C6",15,24,1507,21550,6.073650546
320,BNYB061,On street-18 Emily St(extra parking in garage),17/10/2017 8:55,43.64659,-79.38511,17/10/2017 13:01,BNYB061,"358 Kingswood Rd, Toronto, ON M4E 3P1",8,17,23536,14799,8.867858958
321,BNYB061,"358 Kingswood Rd, Toronto, ON M4E 3P1",17/10/2017 19:34,43.68333,-79.28726,17/10/2017 21:41,BNYB061,Starlight-80 Wellesley St E (behind building),19,17,4265,7622,7.709972571
323,BNYB061,"202-216 Jarvis St, Toronto, ON M5B 2C2",18/10/2017 0:28,43.65744,-79.37475,18/10/2017 0:53,BNYB061,Green P-25 Dundas St E(no double parking),0,18,27293,1504,0.446425764
324,BNYB061,Green P-25 Dundas St E(no double parking),18/10/2017 8:28,43.656,-79.37993,18/10/2017 17:56,BNYB061,"56 Langford Ave, Toronto, ON M4J 3E3",8,18,2126,34114,4.196083791
325,BNYB061,"56 Langford Ave, Toronto, ON M4J 3E3",18/10/2017 18:32,43.68133,-79.34126,18/10/2017 21:17,BNYB061,Green P-35 Erindale Ave(no double parking),18,18,4212,9927,1.377726008
326,BNYB061,Green P-35 Erindale Ave(no double parking),18/10/2017 22:27,43.67732,-79.35747,19/10/2017 13:14,BNYB061,"81 Boultbee Ave, Toronto, ON M4J 1B2",22,18,4813,53221,1.809479031
327,BNYB061,"81 Boultbee Ave, Toronto, ON M4J 1B2",19/10/2017 14:35,43.67338,-79.33564,19/10/2017 17:56,BNYB061,"1487 Dundas St E, Toronto, ON M4M 1T1",14,19,602,12077,0.802033038
328,BNYB061,"1487 Dundas St E, Toronto, ON M4M 1T1",19/10/2017 18:06,43.66649,-79.33269,20/10/2017 8:48,BNYB061,"9 Whitaker Ave, Toronto, ON M6J 1A2",18,19,2708,52899,6.42934612
329,BNYB061,"9 Whitaker Ave, Toronto, ON M6J 1A2",20/10/2017 9:33,43.64384,-79.40622,20/10/2017 9:43,BNYB061,"155 Everden Rd, York, ON M6C 3L1",9,20,1504,601,6.471826803
330,BNYB061,"155 Everden Rd, York, ON M6C 3L1",20/10/2017 10:08,43.69801,-79.43565,20/10/2017 22:56,BNYB061,"50 Glenayr Rd, Toronto, ON M5P 3B8",10,20,601,46069,1.524403669
331,BNYB061,"50 Glenayr Rd, Toronto, ON M5P 3B8",20/10/2017 23:06,43.69263,-79.41821,21/10/2017 10:59,BNYB061,"16-18 Dawson Ave, Toronto, ON M4J 1E5",23,20,22582,42822,6.822631347
332,BNYB061,"16-18 Dawson Ave, Toronto, ON M4J 1E5",21/10/2017 17:16,43.67644,-79.33637,21/10/2017 18:01,BNYB061,"108 Boultbee Ave, Toronto, ON M4J 1B3",17,21,5435,2728,0.343830648
333,BNYB061,"108 Boultbee Ave, Toronto, ON M4J 1B3",21/10/2017 19:32,43.67367,-79.33447,21/10/2017 19:42,BNYB061,"4-18 Bastion St, Toronto, ON M5V 1A4",19,21,3337,602,6.938666883
334,BNYB061,"4-18 Bastion St, Toronto, ON M5V 1A4",21/10/2017 20:37,43.63663,-79.40388,21/10/2017 23:34,BNYB061,"100 Strathcona Ave, Toronto, ON M4J 3C9",20,21,2109,10571,6.733980118
335,BNYB061,"100 Strathcona Ave, Toronto, ON M4J 3C9",22/10/2017 0:09,43.67648,-79.34085,22/10/2017 0:19,BNYB061,"1527 Danforth Ave, Toronto, ON M4J 5C3",0,22,1805,628,1.471080608
336,BNYB061,"1527 Danforth Ave, Toronto, ON M4J 5C3",22/10/2017 0:49,43.68306,-79.32498,22/10/2017 7:03,BNYB061,"23 Northridge Ave, East York, ON M4J 4P1",0,22,602,22446,1.419339628
337,BNYB061,"23 Northridge Ave, East York, ON M4J 4P1",22/10/2017 7:13,43.6945,-79.33281,22/10/2017 16:09,BNYB061,"980 Cosburn Ave, East York, ON M4C 2W9",7,22,5773,32114,1.757410737
338,BNYB061,"980 Cosburn Ave, East York, ON M4C 2W9",22/10/2017 17:45,43.69715,-79.31126,22/10/2017 20:57,BNYB061,"33 Sudbury St, Toronto, ON M6J 3W6",17,22,2713,11505,10.7589453
339,BNYB061,"33 Sudbury St, Toronto, ON M6J 3W6",22/10/2017 21:42,43.64137,-79.42056,22/10/2017 23:17,BNYB061,"83A Elm Grove Ave, Toronto, ON M6K 2J2",21,22,601,5714,0.863947071
341,BNYB061,"37 Noble St, Toronto, ON M6K 2C7",23/10/2017 6:54,43.64261,-79.43145,23/10/2017 9:31,BNYB061,"142 Marion St, Toronto, ON M6R 1E7",6,23,7280,9451,1.212886703
342,BNYB061,"142 Marion St, Toronto, ON M6R 1E7",23/10/2017 11:33,43.64122,-79.4464,23/10/2017 12:34,BNYB061,"199 Wright Ave, Toronto, ON M6R 1L1",11,23,8872,3669,0.49896162
343,BNYB061,"199 Wright Ave, Toronto, ON M6R 1L1",23/10/2017 15:02,43.64546,-79.44843,23/10/2017 16:34,BNYB061,"225 Macdonell Ave, Toronto, ON M6R 2A4",15,23,25129,5516,0.666756235
344,BNYB061,"225 Macdonell Ave, Toronto, ON M6R 2A4",23/10/2017 23:32,43.64662,-79.4403,24/10/2017 2:59,BNYB061,"1506A Queen St W, Toronto, ON M6R 1A4",23,23,603,12382,0.719501504
345,BNYB061,"1506A Queen St W, Toronto, ON M6R 1A4",24/10/2017 3:09,43.64031,-79.43832,24/10/2017 6:32,BNYB061,"141 St Clarens Ave, Toronto, ON M6K",3,24,902,12198,1.133124585
346,BNYB061,"141 St Clarens Ave, Toronto, ON M6K",24/10/2017 6:47,43.6505,-79.43845,24/10/2017 17:58,BNYB061,"703 Durie St, York, ON M6S 3H4",6,24,1805,40238,4.015045741
357,BNYB063,"59 Balliol St, Toronto, ON M4S 1C2",18/10/2017 16:26,43.69722,-79.39427,19/10/2017 11:03,BNYB063,On street-18 Emily St(extra parking in garage),16,18,5489,67013,5.677798378
358,BNYB063,On street-18 Emily St(extra parking in garage),19/10/2017 12:34,43.64659,-79.38511,19/10/2017 17:06,BNYB063,"132-134 Spruce St, Toronto, ON M5A 2J5",12,19,1804,16310,2.800587744
359,BNYB063,"132-134 Spruce St, Toronto, ON M5A 2J5",19/10/2017 17:36,43.66466,-79.36086,19/10/2017 18:31,BNYB063,"115 Saulter St S, Toronto, ON M4M",17,19,1504,3309,2.144970889
360,BNYB063,"115 Saulter St S, Toronto, ON M4M",19/10/2017 18:56,43.65035,-79.34298,19/10/2017 21:12,BNYB063,"1275-1285 Queen St E, Toronto, ON M4L 1C2",18,19,1224,8149,1.859437976
361,BNYB063,"1275-1285 Queen St E, Toronto, ON M4L 1C2",19/10/2017 21:32,43.66355,-79.32879,20/10/2017 8:12,BNYB063,"122 Glencrest Blvd, East York, ON M4B 1L8",21,19,23299,38389,5.602521687
363,BNYB063,"113 Glencrest Blvd, Toronto, ON M4B",22/10/2017 19:21,43.70805,-79.29626,23/10/2017 6:34,BNYB063,Impark-47 Richmond St E (dedicated spaces only),19,22,14001,40354,8.93810018
364,BNYB063,Impark-47 Richmond St E (dedicated spaces only),23/10/2017 10:27,43.65218,-79.37617,23/10/2017 10:47,BNYB063,TargetPark-88 Isabella St (no double parking),10,23,909,1215,1.892463042
365,BNYB063,TargetPark-88 Isabella St (no double parking),23/10/2017 11:02,43.66878,-79.38136,24/10/2017 18:08,BNYB063,"600 Jarvis St, Toronto, ON M4W 1C8",11,23,1675,25531,0.209841272
367,BNYB063,"78 Manning Ave, Toronto, ON M6J 2K5",24/10/2017 18:48,43.64851,-79.40982,24/10/2017 18:58,BNYB063,"50-58 Lansdowne Ave, Toronto, ON M6K 2W2",18,24,1504,603,2.367425151
371,BNYB069,Green P-363 Adelaide St W(no double parking),17/10/2017 10:03,43.6466,-79.39477,17/10/2017 14:47,BNYB069,"37 Chisholm Ave, Toronto, ON M4C 4V1",10,17,8102,17011,8.731855663
372,BNYB069,"37 Chisholm Ave, Toronto, ON M4C 4V1",20/10/2017 17:02,43.68904,-79.30343,20/10/2017 18:58,BNYB069,"1495-1497 Queen St W, Toronto, ON M6R 1A3",17,20,4893,6959,12.28591012
373,BNYB069,"1495-1497 Queen St W, Toronto, ON M6R 1A3",20/10/2017 20:20,43.63987,-79.44021,20/10/2017 20:35,BNYB069,"1479 Queen St W, Toronto, ON M6R 1A1",20,20,3352,902,0.06858092
375,BNYB069,"21 Marion St, Toronto, ON M6R 1E4",21/10/2017 7:53,43.64228,-79.44079,21/10/2017 12:05,BNYB069,"16 Heydon Park Rd, Toronto, ON M6J 2C8",7,21,1805,15112,1.637101872
376,BNYB069,"16 Heydon Park Rd, Toronto, ON M6J 2C8",21/10/2017 12:35,43.65236,-79.42596,21/10/2017 13:30,BNYB069,"22-24 Shannon St, Toronto, ON M6J 2E7",12,21,989,3308,0.221566422
377,BNYB069,"22-24 Shannon St, Toronto, ON M6J 2E7",22/10/2017 13:47,43.65327,-79.42351,22/10/2017 15:07,BNYB069,"490 Dovercourt Rd, Toronto, ON M6H 2W4",13,22,4289,4838,0.316261646
378,BNYB069,"490 Dovercourt Rd, Toronto, ON M6H 2W4",22/10/2017 16:19,43.65471,-79.4269,22/10/2017 17:40,BNYB069,"157 Beatrice St, Toronto, ON M6J 2T2",16,22,303,4869,0.847953316
379,BNYB069,"157 Beatrice St, Toronto, ON M6J 2T2",22/10/2017 17:45,43.65471,-79.41636,22/10/2017 17:45,BNYB069,"70 Greenlaw Ave, Toronto, ON M6H 3V5",17,22,3632,0,3.297856588
381,BNYB069,"16 Foundry Ave, Toronto, ON M6H",23/10/2017 22:52,43.66938,-79.44875,24/10/2017 8:58,BNYB069,"521 Quebec Ave, Toronto, ON M6P 2V6",22,23,3012,36328,1.94300775
382,BNYB069,"521 Quebec Ave, Toronto, ON M6P 2V6",24/10/2017 9:48,43.66679,-79.47264,24/10/2017 13:45,BNYB069,"38 Garnet Ave, Toronto, ON M6G 1V5",9,24,3013,14223,4.044088142
383,BNYB069,"38 Garnet Ave, Toronto, ON M6G 1V5",24/10/2017 14:35,43.66895,-79.42245,24/10/2017 19:13,BNYB069,"156 Northcliffe Blvd, York, ON M6E 3K6",14,24,2408,16693,1.998268451
384,BNYB069,"156 Northcliffe Blvd, York, ON M6E 3K6",24/10/2017 19:54,43.68033,-79.44168,24/10/2017 21:05,BNYB069,"1078 Millwood Rd, Toronto, ON M4G 1X6",19,24,5120,4258,6.96003715
391,BNYB071,"62 Rivercourt Blvd, East York, ON M4J 3A4",23/10/2017 13:25,43.69608,-79.34918,23/10/2017 17:20,BNYB071,Green P-35 Erindale Ave(no double parking),13,23,2426,14068,2.189931362
392,BNYB071,Green P-35 Erindale Ave(no double parking),23/10/2017 18:00,43.67732,-79.35747,23/10/2017 19:01,BNYB071,"40 Munro St, Toronto, ON M4M 2S6",18,23,2732,3666,1.99914908
393,BNYB071,"40 Munro St, Toronto, ON M4M 2S6",23/10/2017 19:47,43.65975,-79.3522,24/10/2017 8:38,BNYB071,Starlight -155 Wellesley St E (rsvd spaces only),19,23,1505,46265,1.99824033
395,BNYB071,"15 Sandford Ave, Toronto, ON M4L 2E6",24/10/2017 13:35,43.67147,-79.33007,24/10/2017 13:35,BNYB071,Impark-47 Richmond St E (dedicated spaces only),13,24,20909,0,4.284002211
396,BNYB071,Impark-47 Richmond St E (dedicated spaces only),24/10/2017 19:23,43.65218,-79.37617,24/10/2017 19:23,BNYB071,"1625-1661 Danforth Ave, Toronto, ON M4C 1H7",19,24,2731,0,5.608034317
410,BNYB072,"90 Nassau St, Toronto, ON M5T 1M7",17/10/2017 5:43,43.65492,-79.40386,17/10/2017 8:50,BNYB072,"501-517 Adelaide St E, Toronto, ON M5A",5,17,4126,11182,3.059660936
411,BNYB072,"501-517 Adelaide St E, Toronto, ON M5A",17/10/2017 9:58,43.65264,-79.36596,17/10/2017 14:22,BNYB072,"100-102 Madison Ave, Toronto, ON M5R 2S4",9,17,2707,15808,3.769635098
412,BNYB072,"100-102 Madison Ave, Toronto, ON M5R 2S4",17/10/2017 15:07,43.6718,-79.40462,17/10/2017 16:58,BNYB072,"284 Crawford St, Toronto, ON M6J 2V8",15,17,1203,6667,2.531664266
413,BNYB072,"284 Crawford St, Toronto, ON M6J 2V8",17/10/2017 17:18,43.65101,-79.41745,17/10/2017 20:20,BNYB072,"1404-1406 Davenport Rd, Toronto, ON M6H",17,17,1832,10907,3.061549942
414,BNYB072,"1404-1406 Davenport Rd, Toronto, ON M6H",17/10/2017 20:51,43.67328,-79.43983,18/10/2017 6:47,BNYB072,"95 Stanley Terrace, Toronto, ON M6J 3V8",20,17,2708,35798,3.953453635
415,BNYB072,"95 Stanley Terrace, Toronto, ON M6J 3V8",18/10/2017 7:32,43.64456,-79.41086,18/10/2017 7:52,BNYB072,GreenP-1155 King st W(no double parking),7,18,2428,1203,1.299264788
416,BNYB072,GreenP-1155 King st W(no double parking),18/10/2017 8:33,43.63778,-79.42401,18/10/2017 10:19,BNYB072,"42 E Liberty St, Toronto, ON M6K 3P2",8,18,601,6344,0.968617542
417,BNYB072,"42 E Liberty St, Toronto, ON M6K 3P2",18/10/2017 10:29,43.63904,-79.4121,18/10/2017 10:29,BNYB072,TargetPark-249 Queens Quay W(Radisson Garage),10,18,2427,0,2.142756145
418,BNYB072,TargetPark-249 Queens Quay W(Radisson Garage),18/10/2017 11:09,43.63859,-79.38548,18/10/2017 12:10,BNYB072,"108 Lisgar St, Toronto, ON M6J 3G3",11,18,1203,3632,3.134092581
419,BNYB072,"108 Lisgar St, Toronto, ON M6J 3G3",18/10/2017 12:30,43.64363,-79.4238,18/10/2017 14:55,BNYB072,"4-6 Fennings St, Toronto, ON M6J 3B8",12,18,4534,8726,0.206740811
420,BNYB072,"4-6 Fennings St, Toronto, ON M6J 3B8",18/10/2017 16:11,43.64419,-79.42135,18/10/2017 16:16,BNYB072,"36 Connaught Ave, Toronto, ON M4L 2V9",16,18,6668,301,8.29054859
422,BNYB072,"1512 Queen St E, Toronto, ON M4L 1E3",18/10/2017 18:57,43.66548,-79.32038,19/10/2017 6:26,BNYB072,"550 Mortimer Ave, East York, ON M4C 5T2",18,18,601,41327,2.851310161
423,BNYB072,"550 Mortimer Ave, East York, ON M4C 5T2",19/10/2017 6:36,43.69057,-79.3277,19/10/2017 9:11,BNYB072,"2 Muriel Ave, Toronto, ON M4J 2X9",6,19,1505,9328,1.740588359
424,BNYB072,"2 Muriel Ave, Toronto, ON M4J 2X9",19/10/2017 9:36,43.681,-79.34483,19/10/2017 19:16,BNYB072,"1080 Queen St E, Toronto, ON M4M 3M4",9,19,902,34798,2.224722406
425,BNYB072,"1080 Queen St E, Toronto, ON M4M 3M4",19/10/2017 19:31,43.66191,-79.33655,19/10/2017 20:42,BNYB072,"1333 Queen St E, Toronto, ON M4L 1C6",19,19,602,4238,0.824798297
426,BNYB072,"1333 Queen St E, Toronto, ON M4L 1C6",19/10/2017 20:52,43.66402,-79.32672,20/10/2017 8:02,BNYB072,"10 Dorothy St, Toronto, ON M4L",20,19,602,40215,0.227188543
427,BNYB072,"10 Dorothy St, Toronto, ON M4L",20/10/2017 8:12,43.66605,-79.3264,20/10/2017 9:23,BNYB072,On street-18 Emily St(extra parking in garage),8,20,1504,4235,5.19522938
428,BNYB072,On street-18 Emily St(extra parking in garage),20/10/2017 9:48,43.64659,-79.38511,20/10/2017 10:38,BNYB072,"Impark-65 Navy Wharf(underground garage, 5 spaces)",9,20,602,3009,0.80303259
429,BNYB072,"Impark-65 Navy Wharf(underground garage, 5 spaces)",20/10/2017 10:48,43.64111,-79.39161,20/10/2017 16:16,BNYB072,"1 Ripley Ave, Toronto, ON M6S 3P2",10,20,1525,19692,6.721642683
430,BNYB072,"1 Ripley Ave, Toronto, ON M6S 3P2",20/10/2017 16:42,43.63685,-79.47493,20/10/2017 22:16,BNYB072,"220 Roncesvalles Ave, Toronto, ON M6R 2L5",16,20,602,20037,2.304802762
431,BNYB072,"220 Roncesvalles Ave, Toronto, ON M6R 2L5",20/10/2017 22:26,43.64475,-79.44845,21/10/2017 2:51,BNYB072,Green P-323 Richmond St E(no double parking),22,20,1204,15927,6.487391246
432,BNYB072,Green P-323 Richmond St E(no double parking),21/10/2017 3:11,43.65315,-79.36866,21/10/2017 8:23,BNYB072,"Green P-31 Parliament St(surface lot, not garage)",3,21,6212,18722,0.688991828
433,BNYB072,"Green P-31 Parliament St(surface lot, not garage)",23/10/2017 10:07,43.64955,-79.36169,23/10/2017 18:31,BNYB072,Targetpark-Loblaws Queens Quay E(enter off Jarvis),10,23,3639,30243,0.85104848
434,BNYB072,Targetpark-Loblaws Queens Quay E(enter off Jarvis),23/10/2017 19:31,43.64456,-79.36971,24/10/2017 2:49,BNYB072,Unit Park-73 The Esplanade(surface lot),19,23,1809,26242,0.398590792
436,BNYB072,"192 Parkhurst Blvd, East York, ON M4G 3W4",24/10/2017 9:23,43.71089,-79.36439,24/10/2017 11:39,BNYB072,"4 Brick Ct, Toronto, ON M4L 3X7",9,24,6350,8178,6.084957085
451,BNYB074,"3 Berkeley St, Toronto, ON M5A 4J5",17/10/2017 9:53,43.65043,-79.36298,17/10/2017 16:22,BNYB074,"6 Natalie Pl, Toronto, ON M4M 3P7",9,17,1551,23331,2.110946995
452,BNYB074,"6 Natalie Pl, Toronto, ON M4M 3P7",17/10/2017 16:48,43.66205,-79.34223,17/10/2017 16:48,BNYB074,Green P-35 Erindale Ave(no double parking),16,17,1203,0,2.094165094
453,BNYB074,Green P-35 Erindale Ave(no double parking),17/10/2017 17:08,43.67732,-79.35747,18/10/2017 8:38,BNYB074,Impark-47 Richmond St E (dedicated spaces only),17,17,2734,55778,3.17443695
454,BNYB074,Impark-47 Richmond St E (dedicated spaces only),18/10/2017 9:23,43.65218,-79.37617,18/10/2017 11:04,BNYB074,Unit Park-73 The Esplanade(surface lot),9,18,1204,6036,0.617457451
455,BNYB074,Unit Park-73 The Esplanade(surface lot),18/10/2017 11:24,43.64703,-79.3733,18/10/2017 12:05,BNYB074,"67-75 Dunn Ave, Toronto, ON M6K 2R8",11,18,902,2428,4.92717561
456,BNYB074,"67-75 Dunn Ave, Toronto, ON M6K 2R8",18/10/2017 12:20,43.63383,-79.43175,18/10/2017 17:21,BNYB074,"26 Springhurst Ave, Toronto, ON M6K 1B4",12,18,3031,18101,0.290509076
457,BNYB074,"26 Springhurst Ave, Toronto, ON M6K 1B4",18/10/2017 18:12,43.63444,-79.42824,18/10/2017 22:12,BNYB074,"1386 Queen St W, Toronto, ON M6K 1L7",18,18,602,14438,0.870850155
459,BNYB074,"6 West Lodge Ave, Toronto, ON M6K 2T3",19/10/2017 7:01,43.64126,-79.43564,19/10/2017 13:25,BNYB074,"148 Cowan Ave, Toronto, ON M6K 2N6",7,19,24436,23025,0.417695336
460,BNYB074,"148 Cowan Ave, Toronto, ON M6K 2N6",19/10/2017 20:12,43.63854,-79.43206,19/10/2017 20:17,BNYB074,Starlight -155 Wellesley St E (rsvd spaces only),20,19,3632,301,5.484473221
461,BNYB074,Starlight -155 Wellesley St E (rsvd spaces only),19/10/2017 21:17,43.66604,-79.37547,20/10/2017 19:49,BNYB074,"98-126 Soudan Ave, Toronto, ON M4S 1V5",21,19,8003,81104,4.598044979
462,BNYB074,"98-126 Soudan Ave, Toronto, ON M4S 1V5",19/10/2017 22:02,43.70515,-79.39404,20/10/2017 1:04,BNYB074,"327 Crawford St, Toronto, ON M6J 2V7",22,19,1806,10881,6.187010177
463,BNYB074,"327 Crawford St, Toronto, ON M6J 2V7",20/10/2017 1:34,43.65225,-79.41789,20/10/2017 18:08,BNYB074,"720 Adelaide St W, Toronto, ON M6J 1B1",1,20,8523,59619,1.210683932
464,BNYB074,"720 Adelaide St W, Toronto, ON M6J 1B1",20/10/2017 20:30,43.64434,-79.40755,20/10/2017 21:25,BNYB074,"588 Adelaide St W, Toronto, ON M6J 3P8",20,20,2706,3352,0.301359677
465,BNYB074,"588 Adelaide St W, Toronto, ON M6J 3P8",20/10/2017 22:11,43.64476,-79.40385,21/10/2017 1:45,BNYB074,"60 Gloucester St, Toronto, ON M4Y 1L7",22,20,1281,12841,3.047800015
467,BNYB074,TargetPark-88 Isabella St (no double parking),23/10/2017 1:04,43.66878,-79.38136,23/10/2017 8:20,BNYB074,"271 Front St E, Toronto, ON M5A 2Y1",1,23,2423,26191,2.463268137
468,BNYB074,"271 Front St E, Toronto, ON M5A 2Y1",23/10/2017 9:01,43.6511,-79.36291,23/10/2017 10:12,BNYB074,"56 Parliament St, Toronto, ON M5A 1G1",9,23,4549,4269,0.070960287
469,BNYB074,"56 Parliament St, Toronto, ON M5A 1G1",23/10/2017 11:28,43.65056,-79.36244,23/10/2017 16:08,BNYB074,"111 Broadview Ave, Toronto, ON M4M 1H1",11,23,2457,16817,1.407373107
470,BNYB074,"111 Broadview Ave, Toronto, ON M4M 1H1",23/10/2017 16:49,43.65937,-79.34988,23/10/2017 17:40,BNYB074,"20 Bertmount Ave, Toronto, ON M4M 2X9",16,23,1821,3054,1.241522391
471,BNYB074,"20 Bertmount Ave, Toronto, ON M4M 2X9",23/10/2017 18:10,43.66299,-79.33528,23/10/2017 18:31,BNYB074,"70-84 D'Arcy St, Toronto, ON M5T 1K1",18,23,3032,1241,4.877407498
477,BNYB075,"1624 Queen St W, Toronto, ON M6R 1B2",17/10/2017 1:16,43.63968,-79.44286,17/10/2017 13:01,BNYB075,"71-87 Glendale Ave, Toronto, ON M6R 2S8",1,17,1505,42326,0.689695292
478,BNYB075,"71-87 Glendale Ave, Toronto, ON M6R 2S8",17/10/2017 13:26,43.64114,-79.45119,17/10/2017 15:27,BNYB075,"62 Macdonell Ave, Toronto, ON M6R 2A2",13,17,602,7242,1.010882795
479,BNYB075,"62 Macdonell Ave, Toronto, ON M6R 2A2",17/10/2017 15:37,43.64218,-79.43871,17/10/2017 17:58,BNYB075,"1550 A Queen St W, Toronto, ON M6R 1A6",15,17,4814,8471,0.218589648
480,BNYB075,"1550 A Queen St W, Toronto, ON M6R 1A6",17/10/2017 19:19,43.64047,-79.44005,17/10/2017 21:11,BNYB075,"1040 Queen St W, Toronto, ON M6J 1H7",19,17,1503,6720,1.630452323
481,BNYB075,"1040 Queen St W, Toronto, ON M6J 1H7",17/10/2017 21:36,43.64393,-79.42036,18/10/2017 6:47,BNYB075,"34 Fennings St, Toronto, ON M6J 3B8",21,17,601,33092,0.151566015
482,BNYB075,"34 Fennings St, Toronto, ON M6J 3B8",18/10/2017 6:57,43.64493,-79.42164,18/10/2017 9:08,BNYB075,"2376-2382 Dundas St W, Toronto, ON M6P 1W9",6,18,3007,7871,2.893614553
483,BNYB075,"2376-2382 Dundas St W, Toronto, ON M6P 1W9",18/10/2017 9:58,43.6579,-79.45282,18/10/2017 17:11,BNYB075,"56 Viella St, Toronto, ON M6N 5C8",9,18,1834,25937,2.421374384
484,BNYB075,"56 Viella St, Toronto, ON M6N 5C8",18/10/2017 17:41,43.67303,-79.47447,18/10/2017 23:53,BNYB075,"393 Roncesvalles Ave, Toronto, ON M6R 2N1",17,18,1225,22326,3.133996197
485,BNYB075,"393 Roncesvalles Ave, Toronto, ON M6R 2N1",19/10/2017 0:14,43.65071,-79.45068,19/10/2017 5:25,BNYB075,"9 Algonquin Ave, Toronto, ON M6R 1K6",0,19,602,18671,0.861317398
487,BNYB075,"158 Roncesvalles Ave, Toronto, ON M6R",19/10/2017 22:07,43.64442,-79.44838,20/10/2017 7:47,BNYB075,"227-229 Fern Ave, Toronto, ON M6R 1K5",22,19,602,34779,0.107192752
488,BNYB075,"227-229 Fern Ave, Toronto, ON M6R 1K5",20/10/2017 7:57,43.64429,-79.4497,20/10/2017 8:53,BNYB075,"443-467 Wellington St W, Toronto, ON M5V 1E7",7,20,2708,3331,4.215063748
489,BNYB075,"443-467 Wellington St W, Toronto, ON M5V 1E7",20/10/2017 9:38,43.64343,-79.39733,20/10/2017 11:03,BNYB075,"31 Greenwood Ave, Toronto, ON M4L 2P5",9,20,2708,5115,6.264412732
490,BNYB075,"31 Greenwood Ave, Toronto, ON M4L 2P5",20/10/2017 11:48,43.66569,-79.3258,20/10/2017 18:43,BNYB075,"895-897 Greenwood Ave, Toronto, ON M4J 4B9",11,20,1526,24867,2.137322566
492,BNYB075,"1169 Danforth Ave, Toronto, ON M4J 4B3",20/10/2017 21:15,43.68128,-79.33323,21/10/2017 8:23,BNYB075,"7-11 Coady Ave, Toronto, ON M4M 2Y9",21,20,902,40063,2.056487219
493,BNYB075,"7-11 Coady Ave, Toronto, ON M4M 2Y9",21/10/2017 8:38,43.6628,-79.33424,21/10/2017 9:49,BNYB075,"58 Ferrier Ave, Toronto, ON M4K 3H4",8,21,1504,4261,2.244183747
495,BNYB075,"36 Langford Ave, Toronto, ON M4J 3E3",21/10/2017 23:59,43.68081,-79.34102,22/10/2017 0:14,BNYB075,"99 Armadale Ave, Toronto, ON M6S",23,21,1532,903,11.92857472
496,BNYB075,"99 Armadale Ave, Toronto, ON M6S",22/10/2017 0:39,43.64825,-79.48232,22/10/2017 6:53,BNYB075,On street-18 Emily St(extra parking in garage),0,22,2761,22418,7.823766244
497,BNYB075,On street-18 Emily St(extra parking in garage),22/10/2017 7:39,43.64659,-79.38511,22/10/2017 10:16,BNYB075,Green P-105 Spadina Ave(No Double Parking),7,22,26637,9417,0.807080906
498,BNYB075,Green P-105 Spadina Ave(No Double Parking),22/10/2017 17:40,43.64667,-79.39514,22/10/2017 17:55,BNYB075,"398 Brunswick Ave, Toronto, ON M5R 2Z4",17,22,2429,905,2.767656417
499,BNYB075,"398 Brunswick Ave, Toronto, ON M5R 2Z4",22/10/2017 18:35,43.66947,-79.40894,23/10/2017 5:48,BNYB075,Starlight-80 Wellesley St E (behind building),18,22,2124,40357,2.339168712
500,BNYB075,Starlight-80 Wellesley St E (behind building),23/10/2017 6:23,43.6663,-79.38019,23/10/2017 15:42,BNYB075,"107 Gainsborough Rd, Toronto, ON M4L 2C6",6,23,3393,33519,5.055510745
501,BNYB075,"107 Gainsborough Rd, Toronto, ON M4L 2C6",23/10/2017 16:39,43.67424,-79.3183,23/10/2017 18:00,BNYB075,"70 Elmer Ave, Toronto, ON M4L 3R7",16,23,607,4876,1.127443754
502,BNYB075,"70 Elmer Ave, Toronto, ON M4L 3R7",23/10/2017 18:10,43.67187,-79.30467,23/10/2017 19:52,BNYB075,"72 Elmer Ave, Toronto, ON M4L 3R7",18,23,1210,6092,0.003703423
503,BNYB075,"72 Elmer Ave, Toronto, ON M4L 3R7",23/10/2017 20:12,43.6719,-79.30465,23/10/2017 20:57,BNYB075,"1851 Queen St E, Toronto, ON M4L 3Z9",20,23,603,2702,0.401812637
504,BNYB075,"1851 Queen St E, Toronto, ON M4L 3Z9",23/10/2017 21:07,43.66857,-79.30659,23/10/2017 21:32,BNYB075,"171 St Johns Rd, Toronto, ON M6P 1V2",21,23,2107,1508,13.83209303
517,BNYB077,"1276 College St, Toronto, ON M6H 1C4",20/10/2017 7:47,43.65124,-79.43933,20/10/2017 9:08,BNYB077,"Impark-65 Navy Wharf(underground garage, 5 spaces)",7,20,2407,4836,4.001477749
518,BNYB077,"Impark-65 Navy Wharf(underground garage, 5 spaces)",20/10/2017 9:48,43.64111,-79.39161,20/10/2017 13:04,BNYB077,"51-97 Bishop Tutu Blvd, Toronto, ON M5V 2Z7",9,20,1204,11754,0.939017474
519,BNYB077,"51-97 Bishop Tutu Blvd, Toronto, ON M5V 2Z7",20/10/2017 13:24,43.63564,-79.4005,20/10/2017 15:11,BNYB077,Green P-25 Dundas St E(no double parking),13,20,1831,6409,2.804425178
520,BNYB077,Green P-25 Dundas St E(no double parking),20/10/2017 15:41,43.656,-79.37993,21/10/2017 13:40,BNYB077,"211 Distillery Lane, Toronto, ON M5A 3C4",15,20,902,79143,1.922115167
521,BNYB077,"211 Distillery Lane, Toronto, ON M5A 3C4",21/10/2017 13:55,43.64995,-79.35755,21/10/2017 14:50,BNYB077,Targetpark-Loblaws Queens Quay E(enter off Jarvis),13,21,2707,3311,1.147382337
522,BNYB077,Targetpark-Loblaws Queens Quay E(enter off Jarvis),21/10/2017 15:36,43.64456,-79.36971,21/10/2017 15:36,BNYB077,"Green P-31 Parliament St(surface lot, not garage)",15,21,601,0,0.85104848
523,BNYB077,"Green P-31 Parliament St(surface lot, not garage)",21/10/2017 15:46,43.64955,-79.36169,21/10/2017 16:16,BNYB077,"9-13 Busy St, Toronto, ON M4M",15,21,3309,1805,2.025568524
524,BNYB077,"9-13 Busy St, Toronto, ON M4M",21/10/2017 17:11,43.6611,-79.34222,21/10/2017 17:21,BNYB077,"193 Boardwalk Dr, Toronto, ON M4L 3X9",17,21,902,601,2.988068888
525,BNYB077,"193 Boardwalk Dr, Toronto, ON M4L 3X9",21/10/2017 17:36,43.66822,-79.3064,21/10/2017 20:47,BNYB077,On street-18 Emily St(extra parking in garage),17,21,2107,11501,6.773411564
526,BNYB077,On street-18 Emily St(extra parking in garage),21/10/2017 21:23,43.64659,-79.38511,21/10/2017 22:08,BNYB077,Where I Park-1941 Yonge St(surface lot),21,21,3932,2706,5.894167885
527,BNYB077,Where I Park-1941 Yonge St(surface lot),21/10/2017 23:13,43.69895,-79.39653,23/10/2017 16:49,BNYB077,"264 Sackville St, Toronto, ON M5A 0B3",23,21,1842,63334,4.961852484
528,BNYB077,"264 Sackville St, Toronto, ON M5A 0B3",23/10/2017 17:20,43.66125,-79.36352,23/10/2017 18:56,BNYB077,"50 Alcorn Ave, Toronto, ON M4V 1E4",17,23,1214,5789,3.340517789
529,BNYB077,"50 Alcorn Ave, Toronto, ON M4V 1E4",23/10/2017 19:16,43.68172,-79.39392,24/10/2017 16:57,BNYB077,"10 Robinson St, Toronto, ON M6J 1K9",19,23,3958,78038,3.781494211
530,BNYB077,"10 Robinson St, Toronto, ON M6J 1K9",24/10/2017 18:03,43.64872,-79.40528,24/10/2017 18:03,BNYB077,"186 Westmount Ave, York, ON M6E 3M8",18,24,2127,0,4.582100874
534,BNYB079,"185 Balmoral Ave, Toronto, ON M4V 1J8",17/10/2017 10:03,43.68385,-79.40261,17/10/2017 15:27,BNYB079,"534 Brunswick Ave, Toronto, ON M5R 2Z5",10,17,2707,19419,1.295314139
535,BNYB079,"534 Brunswick Ave, Toronto, ON M5R 2Z5",17/10/2017 16:12,43.67367,-79.41044,17/10/2017 16:28,BNYB079,"25 Lennox St, Toronto, ON M5S",16,17,923,930,1.062023367
536,BNYB079,"25 Lennox St, Toronto, ON M5S",17/10/2017 16:43,43.66418,-79.40895,17/10/2017 17:58,BNYB079,"1515 Bathurst St, York, ON M5P 3H4",16,17,1205,4513,2.343230694
537,BNYB079,"1515 Bathurst St, York, ON M5P 3H4",17/10/2017 18:18,43.68449,-79.41672,17/10/2017 19:29,BNYB079,"176-190 Cherry St, Toronto, ON M5A",18,17,1859,4210,7.121862099
538,BNYB079,"176-190 Cherry St, Toronto, ON M5A",17/10/2017 20:00,43.64228,-79.35013,17/10/2017 20:15,BNYB079,"12 Pretoria Ave, Toronto, ON M4K 1T1",20,17,2133,924,4.100161501
539,BNYB079,"12 Pretoria Ave, Toronto, ON M4K 1T1",17/10/2017 20:51,43.67861,-79.35885,18/10/2017 0:02,BNYB079,"1015 Danforth Ave, Toronto, ON M4J 1M1",20,17,903,11505,1.846429864
541,BNYB079,"25 Byron Ave, Toronto, ON M4J 3T7",18/10/2017 7:12,43.68057,-79.33516,18/10/2017 7:57,BNYB079,"138 Felstead Ave, Toronto, ON M4J 1G5",7,18,902,2707,0.788334058
542,BNYB079,"138 Felstead Ave, Toronto, ON M4J 1G5",18/10/2017 8:12,43.6791,-79.32557,18/10/2017 8:43,BNYB079,Green P-105 Spadina Ave(No Double Parking),8,18,3336,1826,6.657416751
544,BNYB079,"17 Langford Ave, Toronto, ON M4J 3E4",18/10/2017 14:50,43.68027,-79.34076,18/10/2017 15:05,BNYB079,"36 Lount St, Toronto, ON M4J 5A2",14,18,602,924,1.060193562
545,BNYB079,"36 Lount St, Toronto, ON M4J 5A2",18/10/2017 15:15,43.67637,-79.32873,18/10/2017 18:17,BNYB079,Green P-363 Adelaide St W(no double parking),15,18,3610,10879,6.2593385
547,BNYB079,"7 Delaware Ave, Toronto, ON M6H 2S8",18/10/2017 19:47,43.65433,-79.42531,18/10/2017 20:17,BNYB079,"40-46 Delaware Ave, Toronto, ON M6H 2S7",19,18,2707,1804,0.136895119
548,BNYB079,"40-46 Delaware Ave, Toronto, ON M6H 2S7",18/10/2017 21:02,43.65549,-79.42588,18/10/2017 23:28,BNYB079,"1170-1172 Dundas St W, Toronto, ON M6J 1X4",21,18,301,8751,0.742034814
549,BNYB079,"1170-1172 Dundas St W, Toronto, ON M6J 1X4",18/10/2017 23:33,43.64939,-79.42214,18/10/2017 23:53,BNYB079,"633-635 Glebeholme Blvd, Toronto, ON M4C 1V5",23,18,1526,1222,9.629007364
550,BNYB079,"633-635 Glebeholme Blvd, Toronto, ON M4C 1V5",19/10/2017 0:19,43.68788,-79.3149,19/10/2017 3:50,BNYB079,Four Points by Sheraton-American Drive ($7.50 fee),0,19,3610,12654,24.57738708
551,BNYB079,Four Points by Sheraton-American Drive ($7.50 fee),19/10/2017 4:50,43.69046,-79.62055,19/10/2017 6:21,BNYB079,"Impark-22 Fort York(garage under sobeys, 5 spaces)",4,19,2707,5442,18.99871212
552,BNYB079,"Impark-22 Fort York(garage under sobeys, 5 spaces)",19/10/2017 7:06,43.64066,-79.39461,19/10/2017 7:56,BNYB079,GreenP-1155 King st W(no double parking),7,19,602,3009,2.387444167
553,BNYB079,GreenP-1155 King st W(no double parking),19/10/2017 8:06,43.63778,-79.42401,19/10/2017 8:06,BNYB079,"104 Admiral Rd, Toronto, ON M5R 2L6",8,19,1806,0,4.477177965
554,BNYB079,"104 Admiral Rd, Toronto, ON M5R 2L6",19/10/2017 8:36,43.6749,-79.40245,19/10/2017 8:41,BNYB079,"Linda Griffiths Lane, Toronto, ON M5T 2P4",8,19,1805,301,2.906636384
555,BNYB079,"Linda Griffiths Lane, Toronto, ON M5T 2P4",19/10/2017 9:11,43.64876,-79.40248,19/10/2017 9:16,BNYB079,TargetPark-88 Isabella St (no double parking),9,19,2709,301,2.800402691
557,BNYB079,On street-18 Emily St(extra parking in garage),19/10/2017 13:09,43.64659,-79.38511,19/10/2017 17:41,BNYB079,The Garrison-169 Fort York BLVD (1 car/space only),13,19,1805,16289,1.6454573
558,BNYB079,The Garrison-169 Fort York BLVD (1 car/space only),19/10/2017 18:11,43.63779,-79.40155,19/10/2017 18:21,BNYB079,"250 Hallam St, Toronto, ON M6H 1Y1",18,19,4812,602,4.236501143
559,BNYB079,"250 Hallam St, Toronto, ON M6H 1Y1",19/10/2017 19:41,43.6661,-79.43679,20/10/2017 9:18,BNYB079,"951-955 Queen St W, Toronto, ON M6J",19,19,9027,48988,2.964877513
560,BNYB079,"951-955 Queen St W, Toronto, ON M6J",20/10/2017 11:48,43.64514,-79.41401,20/10/2017 13:45,BNYB079,"100 Marlborough Ave, Toronto, ON M5R 1X6",11,20,1531,6982,4.089957874
563,BNYB079,Green P-323 Richmond St E(no double parking),21/10/2017 23:08,43.65315,-79.36866,22/10/2017 2:05,BNYB079,"190-248 Glenlake Ave, Toronto, ON M6P",23,21,2734,10606,7.591989286
564,BNYB079,"190-248 Glenlake Ave, Toronto, ON M6P",22/10/2017 2:51,43.65811,-79.46278,22/10/2017 15:27,BNYB079,"15 Glebe Rd E, Toronto, ON M4S 1N7",2,22,2184,45405,7.192006547
565,BNYB079,"15 Glebe Rd E, Toronto, ON M4S 1N7",22/10/2017 16:04,43.70131,-79.39622,22/10/2017 17:45,BNYB079,"463-465 Clendenan Ave, Toronto, ON M6P 2X7",16,22,1526,6074,7.432623801
566,BNYB079,"463-465 Clendenan Ave, Toronto, ON M6P 2X7",22/10/2017 18:10,43.66416,-79.47306,22/10/2017 19:21,BNYB079,"1770-1772 Bloor St W, Toronto, ON M6P",18,22,6042,4238,1.458599246
567,BNYB079,"1770-1772 Bloor St W, Toronto, ON M6P",22/10/2017 21:02,43.65461,-79.46063,22/10/2017 21:17,BNYB079,"36-60 Mountview Ave, Toronto, ON M6P 2L3",21,22,2708,907,0.220569758
568,BNYB079,"36-60 Mountview Ave, Toronto, ON M6P 2L3",22/10/2017 22:02,43.65639,-79.46184,22/10/2017 22:57,BNYB079,"530 Quebec Ave, Toronto, ON M6P 2V7",22,22,1504,3308,1.457460449
570,BNYB079,"18 McMurray Ave, Toronto, ON M6P 2T1",23/10/2017 19:57,43.66601,-79.47124,23/10/2017 20:37,BNYB079,"1022 King St W, Toronto, ON M6K 0C1",19,23,1806,2406,5.220498814
571,BNYB079,"1022 King St W, Toronto, ON M6K 0C1",23/10/2017 21:07,43.64184,-79.41561,23/10/2017 22:42,BNYB079,"1052 Queen St W, Toronto, ON M6J 1H7",21,23,601,5724,0.474577454
572,BNYB079,"1052 Queen St W, Toronto, ON M6J 1H7",23/10/2017 22:52,43.64392,-79.42076,23/10/2017 23:17,BNYB079,"239 Russell Hill Rd, Toronto, ON M4V 2T3",22,23,2107,1508,4.560922841
573,BNYB079,"239 Russell Hill Rd, Toronto, ON M4V 2T3",23/10/2017 23:53,43.68374,-79.40716,24/10/2017 16:51,BNYB079,"273 Strathmore Blvd, Toronto, ON M4J 1P7",23,23,2774,61138,6.352040428
574,BNYB079,"273 Strathmore Blvd, Toronto, ON M4J 1P7",24/10/2017 17:38,43.68322,-79.32817,24/10/2017 18:08,BNYB079,"1350-1352 Danforth Ave, Toronto, ON M4J 1M9",17,24,602,1808,0.113610225
586,BNYB080,Green P-323 Richmond St E(no double parking),18/10/2017 6:06,43.65315,-79.36866,18/10/2017 12:00,BNYB080,"91 Dentonia Park Ave, East York, ON M4C 1X1",6,18,5717,21196,7.618066153
588,BNYB080,"12-16 Sutherland Ave, East York, ON M4C 1R9",19/10/2017 11:33,43.69191,-79.28953,19/10/2017 11:53,BNYB080,Green P-10 Portland St(No Double Parking),11,19,4281,1203,10.44048951
590,BNYB080,"77 Portland St, Toronto, ON M5V 2M9",19/10/2017 16:11,43.64396,-79.39937,19/10/2017 17:41,BNYB080,"37 Ravina Crescent, Toronto, ON M4J 3L9",16,19,10254,5413,6.23795072
591,BNYB080,"37 Ravina Crescent, Toronto, ON M4J 3L9",19/10/2017 20:32,43.67797,-79.3377,19/10/2017 22:28,BNYB080,"4 Cawthra Square, Toronto, ON M4Y 1K8",20,19,2410,6961,3.549472809
592,BNYB080,"4 Cawthra Square, Toronto, ON M4Y 1K8",19/10/2017 23:08,43.66703,-79.37916,20/10/2017 9:23,BNYB080,Mercedes Benz Downtown (4 Spaces at front),23,19,3008,36884,1.908661407
593,BNYB080,Mercedes Benz Downtown (4 Spaces at front),20/10/2017 10:13,43.66143,-79.35673,20/10/2017 10:13,BNYB080,"40 Ritchie Ave, Toronto, ON M6R 2J8",10,20,2408,0,7.512416206
594,BNYB080,"40 Ritchie Ave, Toronto, ON M6R 2J8",20/10/2017 10:53,43.6537,-79.4495,20/10/2017 11:13,BNYB080,"104 Palmerston Ave, Toronto, ON M6J 2J1",10,20,2106,1203,3.365923747
595,BNYB080,"104 Palmerston Ave, Toronto, ON M6J 2J1",20/10/2017 11:48,43.65029,-79.40793,20/10/2017 21:51,BNYB080,"270 Lee Ave, Toronto, ON M4E 2P5",11,20,3007,36141,9.109959386
596,BNYB080,"270 Lee Ave, Toronto, ON M4E 2P5",20/10/2017 22:41,43.67576,-79.30029,21/10/2017 14:55,BNYB080,Impark-47 Richmond St E (dedicated spaces only),22,20,4699,58486,6.643015211
597,BNYB080,Impark-47 Richmond St E (dedicated spaces only),22/10/2017 16:14,43.65218,-79.37617,22/10/2017 17:45,BNYB080,"96 Rainsford Rd, Toronto, ON M4L 3N9",16,22,3031,5473,5.882807204
598,BNYB080,"96 Rainsford Rd, Toronto, ON M4L 3N9",22/10/2017 18:35,43.6721,-79.30842,22/10/2017 19:26,BNYB080,"1346 Queen St E, Toronto, ON M4L 1C5",18,22,7853,3033,1.701146041
599,BNYB080,"1346 Queen St E, Toronto, ON M4L 1C5",22/10/2017 21:37,43.66415,-79.32649,23/10/2017 7:24,BNYB080,"26 Laing St, Toronto, ON M4L 2N2",21,22,604,35238,0.194978297
600,BNYB080,"26 Laing St, Toronto, ON M4L 2N2",23/10/2017 7:34,43.66241,-79.32679,23/10/2017 15:27,BNYB080,"22 Bloomfield Ave, Toronto, ON M4L 2G3",7,23,909,28363,1.141454801
601,BNYB080,"22 Bloomfield Ave, Toronto, ON M4L 2G3",23/10/2017 15:42,43.67233,-79.33044,23/10/2017 19:26,BNYB080,"1561 Dundas St E, Toronto, ON M4L 1K9",15,23,607,13453,0.590664147
602,BNYB080,"1561 Dundas St E, Toronto, ON M4L 1K9",23/10/2017 19:36,43.66702,-79.33024,24/10/2017 11:34,BNYB080,"56 Hiltz Ave, Toronto, ON M4L 2N5",19,23,6953,57456,0.308079936
604,BNYB080,"1615 Dundas St E, Toronto, ON M4L 1L1",24/10/2017 18:03,43.66752,-79.32783,24/10/2017 18:33,BNYB080,On street-18 Emily St(extra parking in garage),18,24,5763,1805,5.162413536
612,BNYB081,"12 Bater Ave, East York, ON M4K 2C1",17/10/2017 0:10,43.68703,-79.35516,17/10/2017 0:25,BNYB081,"63 Pepler Ave, East York, ON M4J 2Y7",0,17,601,903,1.047813023
613,BNYB081,"63 Pepler Ave, East York, ON M4J 2Y7",17/10/2017 0:35,43.69572,-79.35012,17/10/2017 6:24,BNYB081,Green P-15 Wellesley St. e(No Double Parking),0,17,7544,20913,4.362879554
615,BNYB081,Green P-25 Dundas St E(no double parking),17/10/2017 12:36,43.656,-79.37993,17/10/2017 16:22,BNYB081,"125 Western Battery Rd, Toronto, ON M6K",12,17,2754,13562,3.345863145
616,BNYB081,"125 Western Battery Rd, Toronto, ON M6K",17/10/2017 17:08,43.64006,-79.4152,17/10/2017 18:49,BNYB081,"288 Borden St, Toronto, ON M5S 2N6",17,17,2106,6018,2.798467264
617,BNYB081,"288 Borden St, Toronto, ON M5S 2N6",17/10/2017 19:24,43.66473,-79.40832,17/10/2017 20:10,BNYB081,"96-102 Robinson St, Toronto, ON M6J 1L7",19,17,2734,2782,1.817870969
618,BNYB081,"96-102 Robinson St, Toronto, ON M6J 1L7",17/10/2017 20:56,43.64842,-79.40987,17/10/2017 22:47,BNYB081,"437 Roncesvalles Ave, Toronto, ON M6R 3B9",20,17,1503,6672,3.321007012
619,BNYB081,"437 Roncesvalles Ave, Toronto, ON M6R 3B9",17/10/2017 23:12,43.6525,-79.45076,18/10/2017 7:27,BNYB081,GreenP-1155 King st W(no double parking),23,17,1504,29730,2.704058685
620,BNYB081,GreenP-1155 King st W(no double parking),18/10/2017 7:52,43.63778,-79.42401,18/10/2017 9:48,BNYB081,"31-35 Golden Ave, Toronto, ON M6R 2J5",7,18,902,6967,2.638057628
621,BNYB081,"31-35 Golden Ave, Toronto, ON M6R 2J5",18/10/2017 10:04,43.65381,-79.44818,18/10/2017 18:37,BNYB081,"2 Atlantic Ave, Toronto, ON M6K 1X8",10,18,2707,30799,2.990444942
622,BNYB081,"2 Atlantic Ave, Toronto, ON M6K 1X8",18/10/2017 19:22,43.63642,-79.41983,18/10/2017 20:07,BNYB081,"672 Gladstone Ave, Toronto, ON M6H 3J4",19,18,6317,2708,3.400213056
623,BNYB081,"672 Gladstone Ave, Toronto, ON M6H 3J4",18/10/2017 21:52,43.66466,-79.43604,19/10/2017 9:36,BNYB081,Where I Park-480 Adelaide St W(3 rsvd spaces),21,18,1505,42232,3.575834808
624,BNYB081,Where I Park-480 Adelaide St W(3 rsvd spaces),19/10/2017 10:01,43.64599,-79.39985,20/10/2017 17:02,BNYB081,"865 College St, Toronto, ON M6H 1A1",10,19,2126,25244,2.12915959
625,BNYB081,"865 College St, Toronto, ON M6H 1A1",20/10/2017 17:37,43.65415,-79.42379,20/10/2017 18:38,BNYB081,"52-54 Clinton St, Toronto, ON M6G 2Y3",17,20,623,3609,0.800148612
626,BNYB081,"52-54 Clinton St, Toronto, ON M6G 2Y3",20/10/2017 18:48,43.65574,-79.41409,20/10/2017 18:58,BNYB081,Evergreen Brickworks (Northeast parking lot),18,20,3062,601,5.188008264
627,BNYB081,Evergreen Brickworks (Northeast parking lot),20/10/2017 19:49,43.68463,-79.36344,21/10/2017 21:23,BNYB081,Starlight -155 Wellesley St E (rsvd spaces only),19,20,2105,5613,2.282323661
629,BNYB081,TargetPark-88 Isabella St (no double parking),22/10/2017 21:32,43.66878,-79.38136,22/10/2017 22:47,BNYB081,"41 River St, Toronto, ON M5A 3P1",21,22,1203,4511,2.257245458
630,BNYB081,"41 River St, Toronto, ON M5A 3P1",22/10/2017 23:07,43.65864,-79.35705,23/10/2017 10:17,BNYB081,"1 Marjory Ave, Toronto, ON M4M 2Y2",23,22,3943,40182,1.866533716
631,BNYB081,"1 Marjory Ave, Toronto, ON M4M 2Y2",23/10/2017 11:23,43.66638,-79.33646,23/10/2017 12:14,BNYB081,"1962 A Queen St E, Toronto, ON M4L 1H8",11,23,3336,3062,2.784716806
637,BNYB082,GreenP-1155 King st W(no double parking),18/10/2017 8:12,43.63778,-79.42401,18/10/2017 9:48,BNYB082,"122 Glencrest Blvd, East York, ON M4B 1L8",8,18,17491,5764,12.9062932
638,BNYB082,"122 Glencrest Blvd, East York, ON M4B 1L8",18/10/2017 14:40,43.70809,-79.29633,18/10/2017 18:12,BNYB082,"181-191 Rexleigh Dr, East York, ON M4B 2N7",14,18,601,12707,0.858187013
639,BNYB082,"181-191 Rexleigh Dr, East York, ON M4B 2N7",18/10/2017 18:22,43.70372,-79.30513,18/10/2017 18:32,BNYB082,"26-28 Glenburn Ave, Toronto, ON M4B",18,18,601,601,0.748333436
640,BNYB082,"26-28 Glenburn Ave, Toronto, ON M4B",18/10/2017 18:42,43.70809,-79.29805,18/10/2017 19:57,BNYB082,"Mercedes-Benz Midtown (1 spot in back, 1 car only)",18,18,4210,4514,5.073070149
641,BNYB082,"Mercedes-Benz Midtown (1 spot in back, 1 car only)",18/10/2017 21:07,43.71258,-79.36086,20/10/2017 17:17,BNYB082,"310-362 Ashdale Ave, Toronto, ON M4L",21,18,1503,72612,5.400283048
642,BNYB082,"310-362 Ashdale Ave, Toronto, ON M4L",20/10/2017 17:42,43.67285,-79.32223,20/10/2017 17:42,BNYB082,"121 Kenilworth Ave, Toronto, ON M4L 3S6",17,20,1805,0,1.611390208
643,BNYB082,"121 Kenilworth Ave, Toronto, ON M4L 3S6",20/10/2017 18:13,43.67029,-79.30251,20/10/2017 21:30,BNYB082,"1868 Queen St E, Toronto, ON M4L 1H2",18,20,601,11875,0.379823833
645,BNYB082,"27 Herbert Ave, Toronto, ON M4L 3P8",21/10/2017 8:08,43.67032,-79.30519,21/10/2017 15:10,BNYB082,"966 Bathurst St, Toronto, ON M5R 3G5",8,21,3608,25340,8.670057976
646,BNYB082,"966 Bathurst St, Toronto, ON M5R 3G5",21/10/2017 16:11,43.66953,-79.41298,21/10/2017 16:56,BNYB082,"318-320 Palmerston Blvd, Toronto, ON M6G 2N6",16,21,3330,2708,1.447678738
647,BNYB082,"318-320 Palmerston Blvd, Toronto, ON M6G 2N6",21/10/2017 17:51,43.65664,-79.41045,21/10/2017 19:22,BNYB082,"24 Munro Park Ave, Toronto, ON M4E 3M3",17,21,3008,5436,10.39135847
648,BNYB082,"24 Munro Park Ave, Toronto, ON M4E 3M3",21/10/2017 20:12,43.67212,-79.28305,22/10/2017 7:08,BNYB082,"26 Ossington Ave, Toronto, ON M6J 2Y7",20,21,3336,39392,11.3694188
649,BNYB082,"26 Ossington Ave, Toronto, ON M6J 2Y7",22/10/2017 8:04,43.64477,-79.41923,22/10/2017 8:40,BNYB082,"2 Rebecca St, Toronto, ON M6J",8,22,8796,2127,0.075673492
650,BNYB082,"2 Rebecca St, Toronto, ON M6J",22/10/2017 11:06,43.64519,-79.41849,22/10/2017 11:51,BNYB082,TargetPark-88 Isabella St (no double parking),11,22,3315,2706,3.975292435
652,BNYB082,"50 Gloucester St, Toronto, ON M4Y 1L5",23/10/2017 9:31,43.6675,-79.38295,23/10/2017 16:59,BNYB082,"394-396 Manning Ave, Toronto, ON M6G 2V7",9,23,1214,26877,2.706297918
653,BNYB082,"394-396 Manning Ave, Toronto, ON M6G 2V7",23/10/2017 17:20,43.65673,-79.41312,23/10/2017 18:41,BNYB082,"326 Brock Ave, Toronto, ON M6K",17,23,1518,4878,1.950736389
654,BNYB082,"326 Brock Ave, Toronto, ON M6K",23/10/2017 19:06,43.65133,-79.43619,23/10/2017 20:07,BNYB082,Green P-800 Fleet St(No Double Parking),19,23,1211,3639,2.665993128
656,BNYB082,"10 Temple Ave, Toronto, ON M6K",24/10/2017 8:38,43.63628,-79.42661,24/10/2017 9:48,BNYB082,"Lake Shore Blvd E & Gardiner Expy & Lower Jarvis St, Toronto, ON M5E",8,24,1525,4216,4.422643978
657,BNYB082,"Lake Shore Blvd E & Gardiner Expy & Lower Jarvis St, Toronto, ON M5E",24/10/2017 10:13,43.64548,-79.37314,24/10/2017 18:43,BNYB082,"72-74 Vanderhoof Ave, East York, ON M4G 2H4",10,24,4215,30597,7.384402199
668,BNYB083,"212 Maria St, Toronto, ON M6P 1W4",17/10/2017 8:35,43.66649,-79.47965,17/10/2017 14:17,BNYB083,"38 Major St, Toronto, ON M5S 2L1",8,17,3610,20536,6.174864854
669,BNYB083,"38 Major St, Toronto, ON M5S 2L1",17/10/2017 15:17,43.65915,-79.40356,17/10/2017 16:48,BNYB083,"22-24 Rusholme Rd, Toronto, ON M6J 3H4",15,17,2105,5464,2.130677932
670,BNYB083,"22-24 Rusholme Rd, Toronto, ON M6J 3H4",17/10/2017 17:23,43.65044,-79.42715,17/10/2017 17:43,BNYB083,"110 Bellevue Ave, Toronto, ON M5T 2N9",17,17,1204,1204,1.96096033
671,BNYB083,"110 Bellevue Ave, Toronto, ON M5T 2N9",17/10/2017 18:03,43.65646,-79.40424,18/10/2017 13:10,BNYB083,"18 Benlamond Ave, Toronto, ON M4E 1Y9",18,17,3008,68782,8.80606881
672,BNYB083,"18 Benlamond Ave, Toronto, ON M4E 1Y9",18/10/2017 14:00,43.68099,-79.30014,18/10/2017 16:01,BNYB083,"29 Redwood Ave, Toronto, ON M4L 2S5",14,18,2408,7242,2.394614109
673,BNYB083,"29 Redwood Ave, Toronto, ON M4L 2S5",18/10/2017 16:41,43.67231,-79.32739,18/10/2017 20:42,BNYB083,"1515 Queen St E, Toronto, ON M4L 1A7",16,18,602,14487,0.947397556
674,BNYB083,"1515 Queen St E, Toronto, ON M4L 1A7",18/10/2017 20:52,43.66541,-79.32048,19/10/2017 7:06,BNYB083,Unit Park-73 The Esplanade(surface lot),20,18,3009,36814,4.715255367
676,BNYB083,"36 Nursewood Rd, Toronto, ON M4E 3R8",19/10/2017 11:43,43.67309,-79.28133,19/10/2017 11:48,BNYB083,"Green P-31 Parliament St(surface lot, not garage)",11,19,2128,301,6.974166597
677,BNYB083,"Green P-31 Parliament St(surface lot, not garage)",19/10/2017 12:24,43.64955,-79.36169,19/10/2017 15:51,BNYB083,"490 Atlas Ave, York, ON M6C 3R2",12,19,10228,12424,7.897030544
678,BNYB083,"490 Atlas Ave, York, ON M6C 3R2",19/10/2017 18:41,43.69512,-79.437,19/10/2017 19:31,BNYB083,"481 Dovercourt Rd, Toronto, ON M6H 2W3",18,19,2433,3008,4.510361469
679,BNYB083,"481 Dovercourt Rd, Toronto, ON M6H 2W3",19/10/2017 20:12,43.65521,-79.42698,19/10/2017 21:07,BNYB083,"225 Rusholme Rd, Toronto, ON M6H 2Y9",20,19,4855,3310,0.224377791
680,BNYB083,"225 Rusholme Rd, Toronto, ON M6H 2Y9",19/10/2017 22:28,43.65633,-79.4293,19/10/2017 23:33,BNYB083,"1277-1289 Dundas St W, Toronto, ON M6J 1X8",22,19,602,3914,0.833881991
681,BNYB083,"1277-1289 Dundas St W, Toronto, ON M6J 1X8",19/10/2017 23:43,43.64943,-79.42524,20/10/2017 5:25,BNYB083,"1172 King St W, Toronto, ON M6K 1E6",23,19,1532,20542,1.128048966
682,BNYB083,"1172 King St W, Toronto, ON M6K 1E6",20/10/2017 5:51,43.63932,-79.4264,20/10/2017 10:03,BNYB083,"32 Alpine Ave, Toronto, ON M6P 3Z7",5,20,1204,15110,3.583794961
683,BNYB083,"32 Alpine Ave, Toronto, ON M6P 3Z7",20/10/2017 10:23,43.66379,-79.45539,20/10/2017 18:08,BNYB083,"1159 Eastern Ave, Toronto, ON M4L",10,20,3631,27877,11.50099157
685,BNYB083,"1591 Queen St E, Toronto, ON M4L 1E5",20/10/2017 20:05,43.66609,-79.31742,20/10/2017 20:45,BNYB083,"4 Thackeray St, Toronto, ON M4M 1T7",20,20,902,2450,2.077664313
686,BNYB083,"4 Thackeray St, Toronto, ON M4M 1T7",20/10/2017 21:00,43.66557,-79.34324,20/10/2017 22:31,BNYB083,"1981-1987 Dundas St E, Toronto, ON M4L 1M7",21,20,1504,5413,2.3272494
687,BNYB083,"1981-1987 Dundas St E, Toronto, ON M4L 1M7",20/10/2017 22:56,43.66918,-79.31474,21/10/2017 6:28,BNYB083,Impark-47 Richmond St E (dedicated spaces only),22,20,3009,27128,5.29082378
689,BNYB083,"60 Niagara St, Toronto, ON M5V 1C5",21/10/2017 21:58,43.6418,-79.4026,21/10/2017 22:13,BNYB083,"120 Jameson Ave, Toronto, ON M6K 2Y1",21,21,1504,902,2.730317126
690,BNYB083,"120 Jameson Ave, Toronto, ON M6K 2Y1",21/10/2017 22:38,43.63563,-79.43544,22/10/2017 0:54,BNYB083,"65 Ford St, Toronto, ON M6N 3A2",22,21,1805,8195,4.584711
691,BNYB083,"65 Ford St, Toronto, ON M6N 3A2",22/10/2017 1:24,43.67217,-79.46184,22/10/2017 13:42,BNYB083,"142 Winona Dr, Toronto, ON M6G 3S9",1,22,2105,44229,2.513245035
692,BNYB083,"142 Winona Dr, Toronto, ON M6G 3S9",22/10/2017 14:17,43.67886,-79.43199,22/10/2017 15:22,BNYB083,"273-281 St Clarens Ave, Toronto, ON M6H 3W2",14,22,2485,3936,2.823040701
693,BNYB083,"273-281 St Clarens Ave, Toronto, ON M6H 3W2",22/10/2017 16:04,43.65411,-79.43981,22/10/2017 17:55,BNYB083,"31-45 Roxton Rd, Toronto, ON M6J 2Y3",16,22,1826,6676,1.648186728
694,BNYB083,"31-45 Roxton Rd, Toronto, ON M6J 2Y3",22/10/2017 18:25,43.65059,-79.41991,22/10/2017 19:01,BNYB083,"65 Uxbridge Ave, Toronto, ON M6N 2Y1",18,22,1808,2129,3.633639737
695,BNYB083,"65 Uxbridge Ave, Toronto, ON M6N 2Y1",22/10/2017 19:31,43.66958,-79.45667,23/10/2017 11:38,BNYB083,"2951 A Dundas St W, Toronto, ON M6P 1Z2",19,22,2428,58028,1.014746048
696,BNYB083,"2951 A Dundas St W, Toronto, ON M6P 1Z2",23/10/2017 12:19,43.66501,-79.46759,23/10/2017 20:37,BNYB083,"12 Russett Ave, Toronto, ON M6H 3M3",12,23,2107,29887,2.542033626
697,BNYB083,"12 Russett Ave, Toronto, ON M6H 3M3",23/10/2017 21:12,43.66022,-79.43669,23/10/2017 22:52,BNYB083,"34-54 Summit Ave, York, ON M6E 1X6",21,23,2110,6024,3.488525238
698,BNYB083,"34-54 Summit Ave, York, ON M6E 1X6",23/10/2017 23:27,43.68671,-79.45993,24/10/2017 20:24,BNYB083,"294 Bathurst St, Toronto, ON M5T 2S3",23,23,2732,75394,5.940774225
707,BNYB085,"504 Lansdowne Ave, Toronto, ON M6H 3Y3",17/10/2017 18:28,43.65768,-79.44266,17/10/2017 18:38,BNYB085,"286 Ossington Ave, Toronto, ON M6J 3A3",18,17,2106,601,1.892785437
708,BNYB085,"286 Ossington Ave, Toronto, ON M6J 3A3",17/10/2017 19:14,43.65056,-79.42129,17/10/2017 22:21,BNYB085,"300-312 St Helens Ave, Toronto, ON M6H 1P3",19,17,3032,11261,1.956527874
709,BNYB085,"300-312 St Helens Ave, Toronto, ON M6H 1P3",17/10/2017 23:12,43.65729,-79.44376,18/10/2017 7:02,BNYB085,"19 Hurndale Ave, Toronto, ON M4K 1R6",23,17,5738,28225,7.580000086
710,BNYB085,"19 Hurndale Ave, Toronto, ON M4K 1R6",18/10/2017 8:38,43.67792,-79.35394,18/10/2017 12:50,BNYB085,"25 Natalie Pl, Toronto, ON M4M 3P6",8,18,1205,15109,1.940916078
711,BNYB085,"25 Natalie Pl, Toronto, ON M4M 3P6",18/10/2017 13:10,43.66269,-79.34215,18/10/2017 15:41,BNYB085,"230 Chisholm Ave, East York, ON M4C 4W4",13,18,4212,9047,4.552610274
712,BNYB085,"230 Chisholm Ave, East York, ON M4C 4W4",18/10/2017 16:51,43.69421,-79.30602,18/10/2017 17:51,BNYB085,"28 Cambrai Ave, East York, ON M4C 2P6",16,18,1826,3638,0.257185614
713,BNYB085,"28 Cambrai Ave, East York, ON M4C 2P6",18/10/2017 18:22,43.69606,-79.30794,19/10/2017 6:41,BNYB085,"270 Logan Ave, Toronto, ON M4M 2N4",18,18,2407,44334,4.773617861
714,BNYB085,"270 Logan Ave, Toronto, ON M4M 2N4",19/10/2017 7:21,43.66136,-79.34289,19/10/2017 9:16,BNYB085,Impark-47 Richmond St E (dedicated spaces only),7,19,3633,6921,2.865308872
715,BNYB085,Impark-47 Richmond St E (dedicated spaces only),19/10/2017 10:17,43.65218,-79.37617,19/10/2017 16:26,BNYB085,"588 Adelaide St W, Toronto, ON M6J",10,19,3008,22143,2.373522323
716,BNYB085,"588 Adelaide St W, Toronto, ON M6J",19/10/2017 17:16,43.64476,-79.40383,19/10/2017 17:36,BNYB085,"745 Indian Rd, Toronto, ON M6P 2E2",17,19,2708,1202,4.818660461
717,BNYB085,"745 Indian Rd, Toronto, ON M6P 2E2",19/10/2017 18:21,43.6622,-79.45866,19/10/2017 22:12,BNYB085,"2-8 Abbs St, Toronto, ON M6K 1M6",18,19,1225,13884,3.052426059
719,BNYB085,"1360 Queen St W, Toronto, ON M6K 1L7",20/10/2017 0:03,43.64144,-79.43278,20/10/2017 7:27,BNYB085,"51 Aberdeen Ave, Toronto, ON M4X 1P2",0,20,7845,26631,5.786523299
720,BNYB085,"51 Aberdeen Ave, Toronto, ON M4X 1P2",20/10/2017 9:38,43.66493,-79.3686,20/10/2017 10:18,BNYB085,"64 Laing St, Toronto, ON M4L 1C2",9,20,3611,2407,3.32268417
721,BNYB085,"64 Laing St, Toronto, ON M4L 1C2",20/10/2017 11:18,43.66366,-79.32733,20/10/2017 11:33,BNYB085,"916 Queen St E, Toronto, ON M4M 1J5",11,20,4233,902,1.232695481
722,BNYB085,"916 Queen St E, Toronto, ON M4M 1J5",20/10/2017 12:44,43.66101,-79.34221,20/10/2017 14:25,BNYB085,Green P-363 Adelaide St W(no double parking),12,20,2730,6086,4.521969173
724,BNYB085,"16 Yarmouth Gardens, Toronto, ON M6G 1W4",20/10/2017 16:01,43.67077,-79.41714,20/10/2017 17:17,BNYB085,"200-212 Cowan Ave, Toronto, ON M6K",16,20,1804,4575,3.634091631
725,BNYB085,"200-212 Cowan Ave, Toronto, ON M6K",20/10/2017 17:47,43.64008,-79.43267,20/10/2017 18:03,BNYB085,"24 Glendonwynne Rd, Toronto, ON M6P 3E4",17,20,1805,902,3.614350494
726,BNYB085,"24 Glendonwynne Rd, Toronto, ON M6P 3E4",20/10/2017 18:33,43.65211,-79.4744,20/10/2017 20:25,BNYB085,"821 Dundas St W, Toronto, ON M6J 1V4",18,20,2450,6719,5.263566779
727,BNYB085,"821 Dundas St W, Toronto, ON M6J 1V4",20/10/2017 21:05,43.65168,-79.40898,20/10/2017 22:31,BNYB085,"266 Roncesvalles Ave, Toronto, ON M6R 2M1",21,20,1504,5112,3.295705314
728,BNYB085,"266 Roncesvalles Ave, Toronto, ON M6R 2M1",20/10/2017 22:56,43.64692,-79.44941,21/10/2017 1:40,BNYB085,"472 Windermere Ave, Toronto, ON M6S 3L6",22,20,925,9832,2.561564331
729,BNYB085,"472 Windermere Ave, Toronto, ON M6S 3L6",21/10/2017 1:55,43.65068,-79.48082,21/10/2017 9:44,BNYB085,"24 High Park Gardens, Toronto, ON M6R 1S9",1,21,1804,28154,1.949393213
730,BNYB085,"24 High Park Gardens, Toronto, ON M6R 1S9",21/10/2017 10:14,43.64902,-79.4567,21/10/2017 10:24,BNYB085,"132 Mulock Ave, Toronto, ON M6N 3C6",10,21,1204,602,2.541960681
731,BNYB085,"132 Mulock Ave, Toronto, ON M6N 3C6",21/10/2017 10:44,43.67094,-79.46567,21/10/2017 12:10,BNYB085,"618 McRoberts Ave, York, ON M6E 4R7",10,21,4812,5134,2.396442142
732,BNYB085,"618 McRoberts Ave, York, ON M6E 4R7",21/10/2017 13:30,43.69217,-79.46054,22/10/2017 7:44,BNYB085,"112 Pacific Ave, Toronto, ON M6P",13,21,4604,65632,3.983586386
733,BNYB085,"112 Pacific Ave, Toronto, ON M6P",22/10/2017 9:01,43.65648,-79.46484,22/10/2017 11:06,BNYB085,"299 Campbell Ave, Toronto, ON M6P",9,22,1503,7523,1.57515977
734,BNYB085,"299 Campbell Ave, Toronto, ON M6P",22/10/2017 11:31,43.66562,-79.44988,22/10/2017 13:52,BNYB085,"2191 Dundas St W, Toronto, ON M6R 1X5",11,22,17932,8428,1.364915429
735,BNYB085,"2191 Dundas St W, Toronto, ON M6R 1X5",22/10/2017 18:51,43.65338,-79.45116,22/10/2017 19:46,BNYB085,"15 Aziel St, Toronto, ON M6P 2N8",18,22,903,3333,1.506539272
736,BNYB085,"15 Aziel St, Toronto, ON M6P 2N8",22/10/2017 20:01,43.66153,-79.46612,23/10/2017 6:59,BNYB085,"131-133 Sackville St, Toronto, ON M5A",20,22,3339,39465,8.402938779
738,BNYB085,"2 Lennox St, Toronto, ON M5S",23/10/2017 17:55,43.66427,-79.40841,23/10/2017 18:20,BNYB085,"304 Garden Ave, Toronto, ON M6R 1J6",17,23,2756,1517,4.393249765
739,BNYB085,"304 Garden Ave, Toronto, ON M6R 1J6",23/10/2017 19:06,43.64168,-79.45321,23/10/2017 19:21,BNYB085,"17 Beaconsfield Ave, Toronto, ON M6J 3J1",19,23,1518,910,2.281806876
740,BNYB085,"17 Beaconsfield Ave, Toronto, ON M6J 3J1",23/10/2017 19:47,43.64362,-79.42498,23/10/2017 21:42,BNYB085,"26 Larchmount Ave, Toronto, ON M4M 2Y7",19,23,1506,6925,7.588500101
741,BNYB085,"26 Larchmount Ave, Toronto, ON M4M 2Y7",23/10/2017 22:07,43.66027,-79.33351,23/10/2017 22:17,BNYB085,"1236 Queen St E, Toronto, ON M4L 1C3",22,23,602,604,0.462157602
743,BNYB085,"71 Alton Ave, Toronto, ON M4L 2M3",24/10/2017 7:42,43.66569,-79.32864,24/10/2017 9:43,BNYB085,Green P-25 Dundas St E(no double parking),7,24,2127,7228,4.264280251
744,BNYB085,Green P-25 Dundas St E(no double parking),24/10/2017 10:18,43.656,-79.37993,24/10/2017 18:08,BNYB085,"98-100 Argyle St, Toronto, ON M6J 1N9",10,24,2429,28170,3.516907088
745,BNYB085,"98-100 Argyle St, Toronto, ON M6J 1N9",24/10/2017 18:48,43.64656,-79.42165,24/10/2017 18:58,BNYB085,Green P-35 Bellevue Ave(no double parking),18,24,1203,603,1.710623331
746,BNYB085,Green P-35 Bellevue Ave(no double parking),24/10/2017 19:18,43.65418,-79.40318,24/10/2017 20:49,BNYB085,"367-381 Rusholme Rd, Toronto, ON M6H 2Z5",19,24,1203,5463,2.344252711
760,BNYB088,"160 Frederick St, Toronto, ON M5A 1E2",17/10/2017 17:03,43.65031,-79.36905,17/10/2017 17:03,BNYB088,Green P-15 Wellesley St. e(No Double Parking),17,17,1504,0,1.994634303
761,BNYB088,Green P-15 Wellesley St. e(No Double Parking),17/10/2017 17:28,43.66484,-79.38359,17/10/2017 18:03,BNYB088,"251-253 St Clarens Ave, Toronto, ON M6H 3W2",17,17,4212,2107,4.677765992
762,BNYB088,"251-253 St Clarens Ave, Toronto, ON M6H 3W2",17/10/2017 19:14,43.65351,-79.43959,18/10/2017 16:46,BNYB088,Starlight-80 Wellesley St E (behind building),19,17,3939,77528,4.985525888
763,BNYB088,Starlight-80 Wellesley St E (behind building),18/10/2017 17:51,43.6663,-79.38019,18/10/2017 18:37,BNYB088,Starlight -155 Wellesley St E (rsvd spaces only),17,18,12033,2728,0.380755324
764,BNYB088,Starlight -155 Wellesley St E (rsvd spaces only),18/10/2017 21:57,43.66604,-79.37547,19/10/2017 5:10,BNYB088,"35-37 Simcoe St, Toronto, ON M5J 1G2",21,18,1805,25958,2.458660457
765,BNYB088,"35-37 Simcoe St, Toronto, ON M5J 1G2",19/10/2017 5:40,43.64501,-79.38491,19/10/2017 16:46,BNYB088,"182 Argyle St, Toronto, ON M6J 1P6",5,19,3308,39943,3.315129748
766,BNYB088,"182 Argyle St, Toronto, ON M6J 1P6",19/10/2017 17:41,43.64568,-79.4261,19/10/2017 18:31,BNYB088,"300 Borden St, Toronto, ON M5S 2N5",17,19,1504,3008,2.56993814
767,BNYB088,"300 Borden St, Toronto, ON M5S 2N5",19/10/2017 18:56,43.6651,-79.40878,19/10/2017 19:16,BNYB088,Green P-121 St Patrick St(No Double Parking),18,19,9073,1203,2.012527735
768,BNYB088,Green P-121 St Patrick St(No Double Parking),19/10/2017 21:47,43.65369,-79.38936,19/10/2017 23:13,BNYB088,"18 Ossington Ave, Toronto, ON M6J 2Y7",21,19,1203,5138,2.607039058
769,BNYB088,"18 Ossington Ave, Toronto, ON M6J 2Y7",19/10/2017 23:33,43.64476,-79.41932,20/10/2017 0:18,BNYB088,Green P-800 Fleet St(No Double Parking),23,19,602,2708,1.165627783
770,BNYB088,Green P-800 Fleet St(No Double Parking),20/10/2017 0:28,43.63691,-79.40972,20/10/2017 19:03,BNYB088,"39 Harris Ave, Toronto, ON M4C 1P3",0,20,3990,66887,10.07920427
771,BNYB088,"39 Harris Ave, Toronto, ON M4C 1P3",20/10/2017 20:10,43.68798,-79.3062,20/10/2017 23:42,BNYB088,"1 Shaw St, Toronto, ON M6K 0A1",20,20,2427,12718,10.17733203
772,BNYB088,"1 Shaw St, Toronto, ON M6K 0A1",21/10/2017 0:22,43.64097,-79.41476,21/10/2017 9:13,BNYB088,"15 Price St, Toronto, ON M4W 1Y7",0,21,3057,31880,4.753629667
773,BNYB088,"15 Price St, Toronto, ON M4W 1Y7",21/10/2017 10:04,43.67976,-79.38992,21/10/2017 11:09,BNYB088,"49 Rosedale Rd, Toronto, ON M4W 2P5",10,21,5435,3911,0.495360773
774,BNYB088,"49 Rosedale Rd, Toronto, ON M4W 2P5",21/10/2017 12:40,43.67723,-79.38485,21/10/2017 22:58,BNYB088,"90 Shank St, Toronto, ON M6K 1E6",12,21,6069,37091,4.618711095
775,BNYB088,"90 Shank St, Toronto, ON M6K 1E6",22/10/2017 0:39,43.64218,-79.41566,22/10/2017 10:06,BNYB088,"141 High Park Ave, Toronto, ON M6P 2S3",0,22,1203,33995,4.525984168
776,BNYB088,"141 High Park Ave, Toronto, ON M6P 2S3",22/10/2017 10:26,43.65834,-79.46729,22/10/2017 11:46,BNYB088,"65 High Park Ave, Toronto, ON M6P 2R7",10,22,2410,4814,0.272251075
777,BNYB088,"65 High Park Ave, Toronto, ON M6P 2R7",22/10/2017 12:26,43.65624,-79.46555,22/10/2017 15:53,BNYB088,"34 Edmund Ave, Toronto, ON M4V 1H3",12,22,7304,12412,5.879697648
778,BNYB088,"34 Edmund Ave, Toronto, ON M4V 1H3",22/10/2017 17:55,43.68213,-79.40181,22/10/2017 18:56,BNYB088,"6 Macklem Ave, Toronto, ON M6J 3M2",17,22,2130,3633,4.141794867
779,BNYB088,"6 Macklem Ave, Toronto, ON M6J 3M2",22/10/2017 19:31,43.65154,-79.43119,22/10/2017 21:32,BNYB088,"228 Medland St, Toronto, ON M6P 2N7",19,22,1504,7251,3.257930569
780,BNYB088,"228 Medland St, Toronto, ON M6P 2N7",22/10/2017 21:57,43.66489,-79.46724,23/10/2017 7:34,BNYB088,"38 Parkview Gardens, Toronto, ON M6P 2W3",21,22,4877,34639,1.28198573
781,BNYB088,"38 Parkview Gardens, Toronto, ON M6P 2W3",23/10/2017 8:56,43.65353,-79.46996,23/10/2017 13:15,BNYB088,"366-372 Pacific Ave, Toronto, ON M6P 2R1",8,23,1839,15542,1.215662338
782,BNYB088,"366-372 Pacific Ave, Toronto, ON M6P 2R1",23/10/2017 13:45,43.66439,-79.46822,23/10/2017 13:55,BNYB088,"35-47 Parkview Gardens, Toronto, ON M6P 2W1",13,23,1848,608,1.20687222
783,BNYB088,"35-47 Parkview Gardens, Toronto, ON M6P 2W1",23/10/2017 14:26,43.65359,-79.46971,24/10/2017 8:08,BNYB088,"24 Fennings St, Toronto, ON M6J 3B9",14,23,1807,63683,4.006257719
784,BNYB088,"24 Fennings St, Toronto, ON M6J 3B9",24/10/2017 8:38,43.64455,-79.42151,24/10/2017 11:39,BNYB088,"63-75 Argyle St, Toronto, ON M6J 1N8",8,24,3939,10886,0.242378892
785,BNYB088,"63-75 Argyle St, Toronto, ON M6J 1N8",24/10/2017 12:45,43.64668,-79.42087,24/10/2017 18:23,BNYB088,"1117 Dundas St W, Toronto, ON M6J 1W9",12,24,14818,20288,0.299988902
797,BNYB091,"8-16 Macphail Ave, Toronto, ON M4K",18/10/2017 7:42,43.68467,-79.34756,18/10/2017 16:26,BNYB091,"1 B Victor Ave, Toronto, ON M4K 1A7",7,18,1805,31400,1.997719904
798,BNYB091,"1 B Victor Ave, Toronto, ON M4K 1A7",18/10/2017 16:56,43.66706,-79.35248,18/10/2017 19:52,BNYB091,"2-38 Minto St, Toronto, ON M4L 1B5",16,18,1503,10578,2.278063103
799,BNYB091,"2-38 Minto St, Toronto, ON M4L 1B5",18/10/2017 20:17,43.66354,-79.32458,18/10/2017 20:17,BNYB091,"1515 Queen St E, Toronto, ON M4L 1A7",20,18,602,0,0.392011702
800,BNYB091,"1515 Queen St E, Toronto, ON M4L 1A7",18/10/2017 20:27,43.6654,-79.32044,19/10/2017 6:36,BNYB091,Targetpark-539 King St W (1 Spot),20,18,1805,36513,6.669836134
801,BNYB091,Targetpark-539 King St W (1 Spot),19/10/2017 7:06,43.64446,-79.39813,19/10/2017 8:16,BNYB091,Impark-47 Richmond St E (dedicated spaces only),7,19,1298,4214,1.96438251
802,BNYB091,Impark-47 Richmond St E (dedicated spaces only),20/10/2017 8:38,43.65218,-79.37617,20/10/2017 11:03,BNYB091,"246 Fulton Ave, East York, ON M4K 1Y7",8,20,1504,8725,4.202356474
803,BNYB091,"246 Fulton Ave, East York, ON M4K 1Y7",20/10/2017 11:28,43.68385,-79.34766,20/10/2017 12:14,BNYB091,"314 Donlands Ave, East York, ON M4J 3R9",11,20,4813,2729,1.011089199
804,BNYB091,"314 Donlands Ave, East York, ON M4J 3R9",20/10/2017 13:34,43.69202,-79.34214,20/10/2017 16:37,BNYB091,"318 Donlands Ave, East York, ON M4J 3R9",13,20,6358,10968,0.014655195
805,BNYB091,"318 Donlands Ave, East York, ON M4J 3R9",20/10/2017 18:23,43.69215,-79.34217,20/10/2017 18:53,BNYB091,"328 Donlands Ave, East York, ON M4J 3R9",18,20,1804,1827,0.031964395
806,BNYB091,"328 Donlands Ave, East York, ON M4J 3R9",20/10/2017 19:23,43.69243,-79.34226,20/10/2017 19:29,BNYB091,"326 Donlands Ave, East York, ON M4J 3R9",19,20,4909,328,0.007094317
807,BNYB091,"326 Donlands Ave, East York, ON M4J 3R9",20/10/2017 20:50,43.69237,-79.34223,20/10/2017 23:11,BNYB091,"1001-1015 Danforth Ave, Toronto, ON M4J 1M1",20,20,1224,8421,1.394958424
809,BNYB091,"140 Chatham Ave, Toronto, ON M4J 1K7",21/10/2017 7:33,43.67988,-79.33519,21/10/2017 12:30,BNYB091,"211 Ennerdale Rd, York, ON M6E 4E1",7,21,3308,17818,9.602757587
810,BNYB091,"211 Ennerdale Rd, York, ON M6E 4E1",21/10/2017 13:25,43.69395,-79.45302,21/10/2017 14:00,BNYB091,"197 Ennerdale Rd, York, ON M6E 4E1",13,21,5717,2106,0.044663613
811,BNYB091,"197 Ennerdale Rd, York, ON M6E 4E1",21/10/2017 15:36,43.69357,-79.45284,22/10/2017 18:00,BNYB091,"190-194 Gloucester Grove, York, ON M6E 2E9",15,21,3654,8669,0.775447098
812,BNYB091,"190-194 Gloucester Grove, York, ON M6E 2E9",22/10/2017 19:01,43.69557,-79.4436,23/10/2017 10:12,BNYB091,"1 Rowan Ave, Toronto, ON M6E",19,22,3639,54652,0.609117694
813,BNYB091,"1 Rowan Ave, Toronto, ON M6E",23/10/2017 11:12,43.69202,-79.44937,23/10/2017 17:30,BNYB091,"338 Margueretta St, Toronto, ON M6H 3S3",11,23,2426,22633,3.809646044
814,BNYB091,"338 Margueretta St, Toronto, ON M6H 3S3",23/10/2017 18:10,43.6584,-79.44025,23/10/2017 18:10,BNYB091,"310 Margueretta St, Toronto, ON M6H 3S3",18,23,6698,0,0.074644478
815,BNYB091,"310 Margueretta St, Toronto, ON M6H 3S3",23/10/2017 20:02,43.65776,-79.43997,23/10/2017 21:52,BNYB091,"250 Lonsdale Rd, Toronto, ON M4V 1W8",20,23,3013,6620,4.584292748
816,BNYB091,"250 Lonsdale Rd, Toronto, ON M4V 1W8",23/10/2017 22:42,43.69039,-79.40513,24/10/2017 0:13,BNYB091,"26 Margueretta St, Toronto, ON M6K 2P4",22,23,1505,5422,5.115914091
818,BNYB091,"1674 Dundas St W, Toronto, ON M6K 1V3",24/10/2017 2:59,43.65013,-79.43726,24/10/2017 6:47,BNYB091,"251 Gladstone Ave, Toronto, ON M6J 3L7",2,24,604,13703,0.585833817
